id,titulo,morada,cp,distrito,municipio,lat,lng,horario,gmaps_link
10856,Supermercados Guarita do Porto Judeu,"Caminho da Cidade, 9700-368 Angra do Heroísmo",9700-368,,Angra do Heroísmo,38.659191,-27.119139,08:30–20:30,"https://www.google.com/maps/dir/?api=1&destination=38.659191,-27.119139"
9714,Continente Bom Dia Bolhão,Rua Sá da Bandeira 295,4000-435,Porto,Porto,41.14881357022915,-8.608009657669607,,"https://www.google.com/maps/dir/?api=1&destination=41.14881357022915,-8.608009657669607"
10758,Continente Arrifes,"Rua Cardeal Humberto de Medeiros, S/N.",9500-376,Ilha de São Miguel,Ponta Delgada,37.761139,-25.702705,,"https://www.google.com/maps/dir/?api=1&destination=37.761139,-25.702705000000002"
10759,Jaa Market Vila Franca,"Rua Teofilo de Braga, n. 45.",9680-438,Ilha de São Miguel,Vila Franca do Campo,37.716302,-25.434123,,"https://www.google.com/maps/dir/?api=1&destination=37.716301999999999,-25.434123"
10760,Continente Vila do Porto,"Avenida de Santa Maria, Lugar do Casal 2030",9580-501,Ilha de Santa Maria,Vila do Porto,36.958465,-25.142931,,"https://www.google.com/maps/dir/?api=1&destination=36.958464999999997,-25.142931000000001"
10761,Continente Faja de Baixo,"Rua do Loreto, 1.",9500-452,Ilha de São Miguel,Ponta Delgada,37.752919,-25.651193,,"https://www.google.com/maps/dir/?api=1&destination=37.752918999999999,-25.651192999999999"
10762,Continente Sao Carlos,Av. Antonio Dacosta  S/N,9700-156,Ilha Terceira,Angra do Heroísmo,38.661394,-27.246231,,"https://www.google.com/maps/dir/?api=1&destination=38.661394000000001,-27.246231000000002"
10763,Continente Angra do Heroismo,"Rua do Cambalim, n.116",9700-037,Ilha Terceira,Angra do Heroísmo,38.663605,-27.206868,,"https://www.google.com/maps/dir/?api=1&destination=38.663604999999997,-27.206868"
10764,Restaurante Manjar,Av. emigrantes nº69,6270-141,Guarda,Seia,40.459601,-7.691331,,"https://www.google.com/maps/dir/?api=1&destination=40.459600999999999,-7.6913309999999999"
10738,E. Leclerc Lordelo,RUA DE MIDE,4815-169,Braga,Guimarães,41.36669,-8.36972,,"https://www.google.com/maps/dir/?api=1&destination=41.366689999999998,-8.3697199999999992"
10739,Sinal Mágico &#8211; Ferreiros,"Rua Damiana Maria Silva, n.º 104",4705-085,Braga,Braga,41.526126,-8.448519,,"https://www.google.com/maps/dir/?api=1&destination=41.526125999999998,-8.4485189999999992"
10740,Sinal Mágico &#8211; Campo da Vinha,"Praça Conde Agrolongo, n.º 39",4700-312,Braga,Braga,41.552121,-8.426374,,"https://www.google.com/maps/dir/?api=1&destination=41.552121,-8.4263739999999991"
10741,Intermarché Campo Maior,vale massano lote 1,7370-201,Portalegre,Campo Maior,39.01509,-7.06813,,"https://www.google.com/maps/dir/?api=1&destination=39.015090000000001,-7.06813"
10742,Supermercado Lopes Vaz Lopes,rua dr antónio elvas n 30 a/b,2810-164,Setúbal,Almada,38.65551,-9.15578,,"https://www.google.com/maps/dir/?api=1&destination=38.65551,-9.15578"
10743,Supermercado Teixoso,RUA JOÃO DE DEUS S N - TEIXOSO,6200-697,Castelo Branco,Covilhã,40.313919,-7.456804,,"https://www.google.com/maps/dir/?api=1&destination=40.313918999999999,-7.456804"
10744,Supermercado Laranja,"Rua da Igreja, nº 44, Edifício Torre",3740-264,Aveiro,Sever do Vouga,40.732608,-8.371089,,"https://www.google.com/maps/dir/?api=1&destination=40.732607999999999,-8.3710889999999996"
10745,Narcicarlos Supermercados,Rua Principal nº47,2480-215,Leiria,Porto de Mós,39.498349,-8.848221,,"https://www.google.com/maps/dir/?api=1&destination=39.498348999999997,-8.8482210000000006"
10746,Mercadinho do Tio Rique,RUA DA VENDA N 570 PAVILHÃO F,4800-534,Braga,Guimarães,41.468019,-8.276187,,"https://www.google.com/maps/dir/?api=1&destination=41.468018999999998,-8.2761870000000002"
10747,Auchan Ariz,"Rua Eng. Manuel Carneiro Geraldes, nº 1403",4625-029,Porto,Marco de Canaveses,41.115741,-8.216946,,"https://www.google.com/maps/dir/?api=1&destination=41.115741,-8.2169460000000001"
10748,Minimercado Adelaide,R DAS CAVADAS N 38,3090-797,Coimbra,Figueira da Foz,40.22138,-8.74953,,"https://www.google.com/maps/dir/?api=1&destination=40.221380000000003,-8.74953"
10749,Coviran Alvarães,RUA FONTE DO PAÇO Nº4,4905-208,Viana do Castelo,Viana do Castelo,41.647903,-8.749087,,"https://www.google.com/maps/dir/?api=1&destination=41.647902999999999,-8.7490869999999994"
10750,SPAR Albufeira Monica Isabel,"Rua Columbano Bordalo Pinheiro, Nº 38, Espaço Comercial Nº. 3 - Cave -",8200-110,Faro,Albufeira,37.086906,-8.23686,,"https://www.google.com/maps/dir/?api=1&destination=37.086905999999999,-8.2368600000000001"
10751,Continente Ponta Delgada,"Rua da Juventude, n. 38",9500-211,Ilha de São Miguel,Ponta Delgada,37.747983,-25.675993,,"https://www.google.com/maps/dir/?api=1&destination=37.747982999999998,-25.675992999999998"
10752,Continente Lagoa,"Av. Eng. Luis Alberto Meireles Martins Mota, s/n.",9560-414,Ilha de São Miguel,Lagoa (R.A.A.),37.74617,-25.584691,,"https://www.google.com/maps/dir/?api=1&destination=37.746169999999999,-25.584690999999999"
10753,Continente Praia da Vitoria,"Estrada da Circunvalacao, n.37",9700-038,Ilha Terceira,Angra do Heroísmo,38.72852,-27.067197,,"https://www.google.com/maps/dir/?api=1&destination=38.728520000000003,-27.067197"
10754,Continente Ribeira Grande,"Rua de Sao Francisco, n.94",9600-516,Ilha de São Miguel,Ribeira Grande,37.820497,-25.527506,,"https://www.google.com/maps/dir/?api=1&destination=37.820497000000003,-25.527505999999999"
10755,Continente Madalena,Rua Novo Caminho Municipal da Escola Cardeal Costa Nunes.,9950-323,Ilha do Pico,Madalena,38.52868,-28.532771,,"https://www.google.com/maps/dir/?api=1&destination=38.528680000000001,-28.532771"
10756,Continente Capelas,"Rua do Rossio, Lote 1",9545-143,Ilha de São Miguel,Ponta Delgada,37.834275,-25.686991,,"https://www.google.com/maps/dir/?api=1&destination=37.834274999999998,-25.686990999999999"
10757,Continente Horta,Estrada Pri­ncipe Alberto do Monaco S/N,9900-038,Ilha do Faial,Horta,38.529776,-28.63206,,"https://www.google.com/maps/dir/?api=1&destination=38.529775999999998,-28.632059999999999"
10718,Cunha Supermercados &#8211; Santa Comba,Rua de Santa Comba,4585-694,Porto,Paredes,41.11324,-8.40178,,"https://www.google.com/maps/dir/?api=1&destination=41.113239999999998,-8.4017800000000005"
10719,Cunha Supermercados &#8211; Recarei,Travessa de Santa Apolónia,4585-608,Porto,Paredes,41.15467,-8.41171,,"https://www.google.com/maps/dir/?api=1&destination=41.154670000000003,-8.4117099999999994"
10720,Marabuto,RUA DA PAZ - QUINTÃ DO LOUREIRO,3800-587,Aveiro,Aveiro,40.665714,-8.606597,,"https://www.google.com/maps/dir/?api=1&destination=40.665714000000001,-8.6065970000000007"
10721,Acácias Supermercados,RUA PROFESSOR EMIDIO GUERREIRO N 11 REFOJOS DE BASTO,4860-146,Braga,Cabeceiras de Basto,41.512048,-7.98955,,"https://www.google.com/maps/dir/?api=1&destination=41.512048,-7.9895500000000004"
10722,Acácias Supermercados,RUA DOS BOMBEIROS VOLUNTÁRIOS,4860-353,Braga,Cabeceiras de Basto,41.51395,-7.98909,,"https://www.google.com/maps/dir/?api=1&destination=41.513950000000001,-7.98909"
10723,SPAR Rabo de Peixe,"Rua Padre João Jacinto Sousa, 57",9600-119,Ilha de São Miguel,Ribeira Grande,37.812538,-25.584204,,"https://www.google.com/maps/dir/?api=1&destination=37.812538000000004,-25.584204"
10724,SPAR Ribeira Grande,Rua São Francisco nº 7,9600-537,Ilha de São Miguel,Ribeira Grande,37.820662,-25.524475,,"https://www.google.com/maps/dir/?api=1&destination=37.820661999999999,-25.524474999999999"
10725,SPAR Tavares Resendes,Rua Tavares Resendes n.º 190,9500-246,Ilha de São Miguel,Ponta Delgada,37.741139,-25.675353,,"https://www.google.com/maps/dir/?api=1&destination=37.741138999999997,-25.675353000000001"
10726,SPAR São Pedro,"Rua Boa Nova, 39",9500-296,Ilha de São Miguel,Ponta Delgada,37.74281,-25.654416,,"https://www.google.com/maps/dir/?api=1&destination=37.742809999999999,-25.654416000000001"
10727,SPAR Livramento,"Rua Direita do Botelho, 36",9500-755,Ilha de São Miguel,Ponta Delgada,37.76068,-25.603615,,"https://www.google.com/maps/dir/?api=1&destination=37.760680000000001,-25.603615000000001"
10728,SPAR Santo António,Rua da Igreja nº 11,9545-422,Ilha de São Miguel,Ponta Delgada,37.859714,-25.703662,,"https://www.google.com/maps/dir/?api=1&destination=37.859713999999997,-25.703662000000001"
10729,SPAR Paim,"Av. Antero de Quental, 49",9500-160,Ilha de São Miguel,Ponta Delgada,37.743556,-25.680838,,"https://www.google.com/maps/dir/?api=1&destination=37.743555999999998,-25.680838000000001"
10730,SPAR Centro,"Rua Machado dos Santos, 23",9500-083,Ilha de São Miguel,Ponta Delgada,37.742035,-25.668531,,"https://www.google.com/maps/dir/?api=1&destination=37.742035000000001,-25.668531000000002"
10731,SPAR Tribunal,"Rua Açoriano Oriental, 38",9500-013,Ilha de São Miguel,Ponta Delgada,37.739048,-25.670001,,"https://www.google.com/maps/dir/?api=1&destination=37.739047999999997,-25.670000999999999"
10732,SPAR Vila Franca,"Rua Teófilo Braga, nº 118 e 120, : rés-do- chão",9680-180,Ilha de São Miguel,Vila Franca do Campo,37.716157,-25.436541,,"https://www.google.com/maps/dir/?api=1&destination=37.716157000000003,-25.436540999999998"
10733,SPAR Pico da Pedra,Avenida da Paz nº 37,9500-089,Ilha de São Miguel,Ponta Delgada,37.802958,-25.614659,,"https://www.google.com/maps/dir/?api=1&destination=37.802957999999997,-25.614659"
10734,SPAR Lagoa,Rua Direita da Atalhada n.º 150,9560-415,Ilha de São Miguel,Lagoa (R.A.A.),37.745267,-25.58279,,"https://www.google.com/maps/dir/?api=1&destination=37.745266999999998,-25.582789999999999"
10735,SPAR Água de Pau,Rua Trindade nº 12,9560-219,Ilha de São Miguel,Lagoa (R.A.A.),37.720951,-25.50699,,"https://www.google.com/maps/dir/?api=1&destination=37.720950999999999,-25.506989999999998"
10736,Intermarché Arcozelo,RUA DA CORGA,4410-440,Porto,Vila Nova de Gaia,41.04487,-8.63194,,"https://www.google.com/maps/dir/?api=1&destination=41.044870000000003,-8.6319400000000002"
10737,Supermercado Avis,"BAIRRO DO SERRADÃO , 2",7480-110,Portalegre,Avis,39.04979,-7.8855,,"https://www.google.com/maps/dir/?api=1&destination=39.049790000000002,-7.8855000000000004"
10698,Intermarché Terras de Bouro,"rua dr.Francisco Xavier Araujo,n136",4840-100,Braga,Terras de Bouro,41.71833,-8.3097,,"https://www.google.com/maps/dir/?api=1&destination=41.718330000000002,-8.3096999999999994"
10699,Intermarché Arganil,Bairro do Prazo,3300-017,Coimbra,Arganil,40.21863,-8.05762,,"https://www.google.com/maps/dir/?api=1&destination=40.218629999999997,-8.05762"
10700,Intermarché Tábua,Rua cova do Barro,3420-427,Coimbra,Tábua,40.36052,-8.0304,,"https://www.google.com/maps/dir/?api=1&destination=40.360520000000001,-8.0304000000000002"
10701,Intermarché Braga,RUA DA MOUTA,4705-180,Braga,Braga,41.53454,-8.42998,,"https://www.google.com/maps/dir/?api=1&destination=41.53454,-8.4299800000000005"
10702,Mercadinhos Adriano &#8211; Sede,"Avenida Dr. Magalhães Lemos, nº 371",4610-106,Porto,Felgueiras,41.369176,-8.202056,,"https://www.google.com/maps/dir/?api=1&destination=41.369176000000003,-8.2020560000000007"
10703,Mercadinhos Adriano &#8211; Vieira do Minho,"Rua da Imaculada Conceição, 658",4850-522,Braga,Vieira do Minho,41.63268,-8.14278,,"https://www.google.com/maps/dir/?api=1&destination=41.632680000000001,-8.1427800000000001"
10704,Mercadinhos Adriano &#8211; Arco de Baúlhe,"Rua Capitão Elísio Azevedo, A1 A2",4860-041,Braga,Cabeceiras de Basto,41.48427,-7.96032,,"https://www.google.com/maps/dir/?api=1&destination=41.484270000000002,-7.9603200000000003"
10705,Mercadinhos Adriano &#8211; Braga,"Avenida da Liberdade, 22",4715-037,Braga,Braga,41.54438,-8.41921,,"https://www.google.com/maps/dir/?api=1&destination=41.544379999999997,-8.4192099999999996"
10706,Mercadinhos Adriano &#8211; Mondim de Basto,"Rua 25 de Abril, 339",4880-164,Vila Real,Mondim de Basto,41.41106,-7.956,,"https://www.google.com/maps/dir/?api=1&destination=41.411059999999999,-7.9560000000000004"
10707,Mercadinhos Adriano &#8211; Mesão Frio,"Travessa Pinheiro Manso,8",5040-402,Vila Real,Mesão Frio,41.15428,-7.8974,,"https://www.google.com/maps/dir/?api=1&destination=41.15428,-7.8974000000000002"
10708,Mercadinhos Adriano &#8211; Póvoa de Lanhoso,"Avenida 25 de Abril, 231",4830-512,Braga,Póvoa de Lanhoso,41.573575,-8.269948,,"https://www.google.com/maps/dir/?api=1&destination=41.573574999999998,-8.2699479999999994"
10709,Meu Super Terronhas,Rua Padre Jerónimo Macedo nº85,4585-640,Porto,Paredes,41.15352,-8.40969,,"https://www.google.com/maps/dir/?api=1&destination=41.15352,-8.4096899999999994"
10710,Meu Super Celorico de Basto,Rua Geraldo da Cunha 18,4890-231,Braga,Celorico de Basto,41.38282,-8.00427,,"https://www.google.com/maps/dir/?api=1&destination=41.382820000000002,-8.00427"
10711,Coviran Estoril,sacadura cabral 102 loja,2765-349,Lisboa,Cascais,38.69472,-9.37,,"https://www.google.com/maps/dir/?api=1&destination=38.694719999999997,-9.3699999999999992"
10712,Munivel Mercearias Chaves,ZONA INDUSTRIAL CHAVES,5400-885,Vila Real,Chaves,41.771204,-7.469201,,"https://www.google.com/maps/dir/?api=1&destination=41.771203999999997,-7.469201"
10713,Supermercado Miranda &#8211; Varziela,Rua Varziela,4750-706,Braga,Barcelos,41.56739,-8.65502,,"https://www.google.com/maps/dir/?api=1&destination=41.567390000000003,-8.6550200000000004"
10714,Supermercado Miranda &#8211; Meadela,Travessa de Carregais nº1,4900-665,Viana do Castelo,Viana do Castelo,41.70733,-8.80101,,"https://www.google.com/maps/dir/?api=1&destination=41.707329999999999,-8.8010099999999998"
10715,Supermercado Miranda &#8211; Viana,Rua Salvato Feijo Torre Active Center Lj Q,4900-415,Viana do Castelo,Viana do Castelo,41.70374,-8.82272,,"https://www.google.com/maps/dir/?api=1&destination=41.703740000000003,-8.8227200000000003"
10716,Supermercado Miranda &#8211; Gilmonde,Rua D. Elvira Gomes Barroso,4755-230,Braga,Barcelos,41.51111,-8.65986,,"https://www.google.com/maps/dir/?api=1&destination=41.511110000000002,-8.6598600000000001"
10717,Cunha Supermercados &#8211; Aguiar de Sousa,AVENIDA S SEBASTIÃO N 1112,4585-125,Porto,Paredes,41.1317,-8.45571,,"https://www.google.com/maps/dir/?api=1&destination=41.131700000000002,-8.4557099999999998"
10678,Lidl Malveira,"Rua Casal das Queimadas,",2665-258,Lisboa,Mafra,38.931735,-9.250799,,"https://www.google.com/maps/dir/?api=1&destination=38.931735000000003,-9.2507990000000007"
10679,Lidl Ericeira,"E.N. 116 - Capa Rosa, km1,",2655-139,Lisboa,Mafra,38.96826,-9.38401,,"https://www.google.com/maps/dir/?api=1&destination=38.968260000000001,-9.38401"
10680,Lidl Mafra,"R. do Almirante Gago Coutinho, N.º 3",2640-487,Lisboa,Mafra,38.932531,-9.330557,,"https://www.google.com/maps/dir/?api=1&destination=38.932530999999997,-9.3305570000000007"
10681,Loja Margaride Felgueiras,Rua monte das ruas 113,4610-259,Porto,Felgueiras,41.362606,-8.216572,,"https://www.google.com/maps/dir/?api=1&destination=41.362606,-8.2165719999999993"
10682,Loja Amarante,Rua da Rampa Alta nº374,4600-275,Porto,Amarante,41.280661,-8.084629,,"https://www.google.com/maps/dir/?api=1&destination=41.280661000000002,-8.0846289999999996"
10683,Loja Serrinha,"Avenida da Liberdade, nº 810, Fração B",4615-751,Porto,Felgueiras,41.305722,-8.177272,,"https://www.google.com/maps/dir/?api=1&destination=41.305722000000003,-8.1772720000000003"
10684,Loja S. Jorge de Várzea,"Rua de São Jorge, nº951",4610-808,Porto,Felgueiras,41.3502,-8.190629,,"https://www.google.com/maps/dir/?api=1&destination=41.350200000000001,-8.1906289999999995"
10685,Loja Bitarães Paredes,"Avenida de são Tomé, nº121",4580-792,Porto,Paredes,41.229419,-8.311157,,"https://www.google.com/maps/dir/?api=1&destination=41.229419,-8.3111569999999997"
10686,Loja Mesão Frio,Rua Cruz D’Argola nº 853,4810-225,Braga,Guimarães,41.452216,-8.262191,,"https://www.google.com/maps/dir/?api=1&destination=41.452216,-8.2621909999999996"
10687,Loja Lustosa,"Estrada Nacional 106, nº1574",4620-254,Porto,Lousada,41.328039,-8.309087,,"https://www.google.com/maps/dir/?api=1&destination=41.328038999999997,-8.3090869999999999"
10688,Loja Sá Carneiro,"Rua Dr. Francisco Sá Carneiro, nº 117",4810-008,Braga,Guimarães,41.45117,-8.279185,,"https://www.google.com/maps/dir/?api=1&destination=41.451169999999998,-8.279185"
10689,Talho Centro Felgueiras,Av. Dr. Leonardo Coimbra nº 626,4610-105,Porto,Felgueiras,41.363681,-8.200006,,"https://www.google.com/maps/dir/?api=1&destination=41.363681,-8.2000060000000001"
10690,Distrivariante,"Rua 1º Maio,337",3700-541,Aveiro,Santa Maria da Feira,40.91998,-8.49264,,"https://www.google.com/maps/dir/?api=1&destination=40.919980000000002,-8.4926399999999997"
10691,Agrilar Belmonte,"Agrilar Belmonte, Sitio do Ginjal",6250-076,Castelo Branco,Belmonte,40.367359,-7.341163,,"https://www.google.com/maps/dir/?api=1&destination=40.367359,-7.3411629999999999"
10692,Agrilar Guarda,"Agrilar Guarda, Outeiro de S. Miguel, Lugar do Juncal, Estrada N16",6300-035,Guarda,Guarda,40.566547,-7.22409,,"https://www.google.com/maps/dir/?api=1&destination=40.566547,-7.2240900000000003"
10693,Intermarché Valença,Costa da Ervilha,4930-632,Viana do Castelo,Valença,42.02463,-8.64728,,"https://www.google.com/maps/dir/?api=1&destination=42.024630000000002,-8.6472800000000003"
10694,Coviran &#8211; Supermercado Reis,Rua do Ouro 3,7900-039,Beja,Ferreira do Alentejo,38.12049,-8.06273,,"https://www.google.com/maps/dir/?api=1&destination=38.120489999999997,-8.0627300000000002"
10695,Intermarché Paredes de Coura,Rua Dr.Aquilino Ribeiro,4940-533,Viana do Castelo,Paredes de Coura,41.91331,-8.55653,,"https://www.google.com/maps/dir/?api=1&destination=41.913310000000003,-8.5565300000000004"
10696,Intermarché Montalegre,AVENIDA POVO DE TIMOR,5470-272,Vila Real,Montalegre,41.83063,-7.77988,,"https://www.google.com/maps/dir/?api=1&destination=41.830629999999999,-7.7798800000000004"
10697,Supermercado Azenhas,"Rua Direita, Azenhas, N.144",3850-740,Aveiro,Albergaria-a-Velha,40.626363,-8.534317,,"https://www.google.com/maps/dir/?api=1&destination=40.626362999999998,-8.5343169999999997"
10658,Lidl Guimarães &#8211; Silvares,"Rua 25 de Abril,197",4835-408,Braga,Guimarães,41.424615,-8.355618,,"https://www.google.com/maps/dir/?api=1&destination=41.424615000000003,-8.3556179999999998"
10659,Lidl Alfena,"Rua 1º de Maio,1443 e 1461",4445-245,Porto,Valongo,41.240239,-8.528556,,"https://www.google.com/maps/dir/?api=1&destination=41.240239000000003,-8.528556"
10660,Lidl Moita &#8211; Quinta das Vagas,"Quinta das Vagas,",2860-445,Setúbal,Moita,38.646595,-8.994434,,"https://www.google.com/maps/dir/?api=1&destination=38.646594999999998,-8.994434"
10661,Lidl Porto Alto,"Rua 25 de Abril,1",2135-148,Santarém,Benavente,38.922352,-8.8814,,"https://www.google.com/maps/dir/?api=1&destination=38.922351999999997,-8.8813999999999993"
10662,Lidl Vila do Conde &#8211; Mindelo,"Lugar da Gândara, EN13, Mindelo",4485-473,Porto,Vila do Conde,41.311508,-8.706728,,"https://www.google.com/maps/dir/?api=1&destination=41.311508000000003,-8.706728"
10663,Lidl Anadia,"Rua das Flores, Canha",3780-320,Aveiro,Anadia,40.466715,-8.462298,,"https://www.google.com/maps/dir/?api=1&destination=40.466715000000001,-8.4622980000000005"
10664,Lidl Ovar,"Rua da Pardala,",3880-112,Aveiro,Ovar,40.892359,-8.614481,,"https://www.google.com/maps/dir/?api=1&destination=40.892358999999999,-8.6144809999999996"
10665,Lidl Montijo &#8211; Av. de Olivença,"Avenida de Olivença,",2870-108,Setúbal,Montijo,38.714027,-8.968701,,"https://www.google.com/maps/dir/?api=1&destination=38.714027000000002,-8.9687009999999994"
10666,Lidl Torres Vedras &#8211; Silveira,"Rua Inácio Nunes da Costa, Silveira",2560-546,Lisboa,Torres Vedras,39.112732,-9.367118,,"https://www.google.com/maps/dir/?api=1&destination=39.112732000000001,-9.3671179999999996"
10667,Lidl Almancil,Vale das Eguas,8135-016,Faro,Loulé,37.087701,-8.02993,,"https://www.google.com/maps/dir/?api=1&destination=37.087701000000003,-8.0299300000000002"
10668,Lidl Sintra &#8211; Lourel,"Estrada de Mafra, n.º11, Lourel",2710-374,Lisboa,Sintra,38.811609,-9.370887,,"https://www.google.com/maps/dir/?api=1&destination=38.811608999999997,-9.3708869999999997"
10669,Lidl Castro Verde,Rua Nova da Feira,7780-201,Beja,Castro Verde,37.694403,-8.090159,,"https://www.google.com/maps/dir/?api=1&destination=37.694403000000001,-8.0901589999999999"
10670,Lidl Mértola,"Rua Professor Bento de Jesus Caraça, 7",7750-295,Beja,Mértola,37.64357,-7.65549,,"https://www.google.com/maps/dir/?api=1&destination=37.643569999999997,-7.6554900000000004"
10671,Lidl Maia &#8211; Brás Oleiro,Rua Quinta da Palmeira,4425-456,Porto,Maia,41.197674,-8.574444,,"https://www.google.com/maps/dir/?api=1&destination=41.197673999999999,-8.5744439999999997"
10672,Lidl Loulé &#8211; Caliços,Avenida do Algarve - Caliços,8100-298,Faro,Loulé,37.100728,-8.001722,,"https://www.google.com/maps/dir/?api=1&destination=37.100727999999997,-8.0017219999999991"
10673,Lidl Trofa,"Rua Raul Brandão e Rua das Indústrias, nº337",4785-135,Porto,Trofa,41.331439,-8.561702,,"https://www.google.com/maps/dir/?api=1&destination=41.331439000000003,-8.5617020000000004"
10674,Lidl Porto de Mós,"Estrada da Calvaria, São Jorge - IC2",2480-062,Leiria,Porto de Mós,39.629282,-8.855987,,"https://www.google.com/maps/dir/?api=1&destination=39.629282000000003,-8.8559870000000007"
10675,Lidl Águeda,"Av. 25 de Abril, Lugar de Pessegueiro",3750-322,Aveiro,Águeda,40.572928,-8.439276,,"https://www.google.com/maps/dir/?api=1&destination=40.572927999999997,-8.4392759999999996"
10676,Lidl Alverca Norte,"E.N. 10,",2615-067,Lisboa,Vila Franca de Xira,38.88879,-9.04474,,"https://www.google.com/maps/dir/?api=1&destination=38.88879,-9.0447399999999991"
10677,Lidl Lisboa &#8211; Entrecampos,"Rua Cordeiro de Sousa,",1050-077,Lisboa,Lisboa,38.744624,-9.149037,,"https://www.google.com/maps/dir/?api=1&destination=38.744624000000002,-9.1490369999999999"
10638,Lidl Seia,"Avenida Terras de Sena,",6270-555,Guarda,Seia,40.426013,-7.714706,,"https://www.google.com/maps/dir/?api=1&destination=40.426012999999998,-7.7147059999999996"
10639,Lidl Setúbal &#8211; São Julião,"Q. do Paraiso - Av. de Moçambique,",2900-082,Setúbal,Setúbal,38.539178,-8.891425,,"https://www.google.com/maps/dir/?api=1&destination=38.539178,-8.8914249999999999"
10640,Lidl Aveiro &#8211; Esgueira,"Avenida Europa,458",3800-034,Aveiro,Aveiro,40.663478,-8.612441,,"https://www.google.com/maps/dir/?api=1&destination=40.663477999999998,-8.6124410000000005"
10641,Lidl Guimarães &#8211; Fermentões,"Rua Sta. Eulália - E.N. 101 - Lugar do Motelo,1718",4800-098,Braga,Guimarães,41.448738,-8.30255,,"https://www.google.com/maps/dir/?api=1&destination=41.448737999999999,-8.3025500000000001"
10642,Lidl Oeiras &#8211; Porto Salvo,"Praça Sérgio Vieira de Mello,",2740-287,Lisboa,Oeiras,38.715006,-9.300315,,"https://www.google.com/maps/dir/?api=1&destination=38.715006000000002,-9.3003149999999994"
10643,Lidl Oeiras &#8211; Linda-a-Velha,"Avenida 25 de Abril de 1974,21",2795-195,Lisboa,Oeiras,38.7163,-9.239099,,"https://www.google.com/maps/dir/?api=1&destination=38.716299999999997,-9.2390989999999995"
10644,Lidl Barreiro &#8211; Rua Miguel Bombarda,"Rua Miguel Bombarda,88",2830-570,Setúbal,Barreiro,38.657588,-9.071784,,"https://www.google.com/maps/dir/?api=1&destination=38.657587999999997,-9.0717839999999992"
10645,Lidl V.N. Gaia &#8211; Monte da Virgem,"Rua de Conceição Fernandes nº 1339, Lugar de Laborim de Cima",4430-066,Porto,Vila Nova de Gaia,41.108133,-8.593567,,"https://www.google.com/maps/dir/?api=1&destination=41.108133000000002,-8.5935670000000002"
10646,Lidl Santo Tirso &#8211; Vila das Aves,"Calçada da Azenha do Pisco,",4795-007,Porto,Santo Tirso,41.363029,-8.395394,,"https://www.google.com/maps/dir/?api=1&destination=41.363028999999997,-8.3953939999999996"
10647,Lidl Serpa,"Circular Interna de Serpa,",7830-493,Beja,Serpa,37.93815,-7.596513,,"https://www.google.com/maps/dir/?api=1&destination=37.93815,-7.5965129999999998"
10648,Lidl Charneca da Caparica,Vale Rosal - Estrada de Palhais,2830-236,Setúbal,Barreiro,38.611308,-9.047494,,"https://www.google.com/maps/dir/?api=1&destination=38.611308000000001,-9.0474940000000004"
10649,Lidl Sintra &#8211; Rio de Mouro,"Av. Major Gen. Machado de Sousa 1,",2635-445,Lisboa,Sintra,38.782789,-9.336881,,"https://www.google.com/maps/dir/?api=1&destination=38.782789000000001,-9.336881"
10650,Lidl Vialonga,"Rua Prof. Egas Moniz,",2625-657,Lisboa,Vila Franca de Xira,38.874186,-9.076461,,"https://www.google.com/maps/dir/?api=1&destination=38.874186000000002,-9.0764610000000001"
10651,Lidl Loures &#8211; Santa Iria de Azóia,"Rua D. Pedro V,",2690-189,Lisboa,Loures,38.837545,-9.093575,,"https://www.google.com/maps/dir/?api=1&destination=38.837544999999999,-9.0935749999999995"
10652,Lidl Odivelas &#8211; Rua Soares dos Reis,"Rua Soares dos Reis,Lote 42",2675-612,Lisboa,Odivelas,38.798421,-9.177495,,"https://www.google.com/maps/dir/?api=1&destination=38.798420999999998,-9.1774950000000004"
10653,Lidl Marco de Canaveses,"Rua Largo da Feira,329",4630-215,Porto,Marco de Canaveses,41.180278,-8.154807,,"https://www.google.com/maps/dir/?api=1&destination=41.180278000000001,-8.1548069999999999"
10654,Lidl Leiria &#8211; Av. 25 de Abril,"Av. 25 de Abril,15",2400-265,Leiria,Leiria,39.747182,-8.81577,,"https://www.google.com/maps/dir/?api=1&destination=39.747182000000002,-8.8157700000000006"
10655,Lidl Valongo &#8211; Fonseca Dias,"Rua Fonseca Dias,584",4440-652,Porto,Valongo,41.183393,-8.4849,,"https://www.google.com/maps/dir/?api=1&destination=41.183393000000002,-8.4848999999999997"
10656,Lidl Ermesinde,"Rua Professor Joaquim Teixeira,41",4445-288,Porto,Valongo,41.21288,-8.550487,,"https://www.google.com/maps/dir/?api=1&destination=41.212879999999998,-8.5504870000000004"
10657,Lidl Vila do Conde &#8211; Av. Júlio Graça,"Av. Júlio Graça,",4480-672,Porto,Vila do Conde,41.350006,-8.747795,,"https://www.google.com/maps/dir/?api=1&destination=41.350006,-8.747795"
10618,Lidl Monção,"EN 101 - Gandra - Mazedo,",4950-278,Viana do Castelo,Monção,42.053882,-8.48952,,"https://www.google.com/maps/dir/?api=1&destination=42.053882000000002,-8.4895200000000006"
10619,Lidl Cascais &#8211; Fontaínhas,"Rua S. José,102",2750-134,Lisboa,Cascais,38.708822,-9.421794,,"https://www.google.com/maps/dir/?api=1&destination=38.708821999999998,-9.4217940000000002"
10620,Lidl Lagoa &#8211; Parchal,"Rua Foz do Arade,5",8400-330,Faro,Lagoa,37.136848,-8.519292,,"https://www.google.com/maps/dir/?api=1&destination=37.136848000000001,-8.5192920000000001"
10621,Lidl Tomar,"Rua de Coimbra,",2300-471,Santarém,Tomar,39.609811,-8.400245,,"https://www.google.com/maps/dir/?api=1&destination=39.609811000000001,-8.400245"
10622,Lidl Covilhã,"Alameda Pêro da Covilhã,51",6200-507,Castelo Branco,Covilhã,40.269133,-7.505872,,"https://www.google.com/maps/dir/?api=1&destination=40.269132999999997,-7.5058720000000001"
10623,Lidl Vagos,"Rua do Grémio da Lavoura,",3840-384,Aveiro,Vagos,40.547293,-8.678197,,"https://www.google.com/maps/dir/?api=1&destination=40.547293000000003,-8.6781970000000008"
10624,Lidl Viana do Castelo &#8211; Darque,"Rua Arriscado Queirós,100",4935-208,Viana do Castelo,Viana do Castelo,41.681932,-8.776204,,"https://www.google.com/maps/dir/?api=1&destination=41.681932000000003,-8.7762039999999999"
10625,Lidl Cascais &#8211; Rebelva,"Rua João Villaret,74",2785-404,Lisboa,Cascais,38.695791,-9.344434,,"https://www.google.com/maps/dir/?api=1&destination=38.695791,-9.3444339999999997"
10626,Lidl Vila Real &#8211; Av. da Universidade,"Avenida da Universidade,6",5000-693,Vila Real,Vila Real,41.294586,-7.733989,,"https://www.google.com/maps/dir/?api=1&destination=41.294586000000002,-7.7339890000000002"
10627,Lidl Boliqueime,"Av. Professor Doutor Aníbal Cavaco Silva,",8100-070,Faro,Loulé,37.131221,-8.152005,,"https://www.google.com/maps/dir/?api=1&destination=37.131220999999996,-8.1520050000000008"
10628,Lidl Braga &#8211; Infias,"Rua Américo Rodrigues Barbosa,29",4710-008,Braga,Braga,41.560311,-8.417322,,"https://www.google.com/maps/dir/?api=1&destination=41.560310999999999,-8.4173220000000004"
10629,Lidl Santa Maria da Feira,"Rua de Santo André,36",4520-272,Aveiro,Santa Maria da Feira,40.930686,-8.551873,,"https://www.google.com/maps/dir/?api=1&destination=40.930686000000001,-8.5518730000000005"
10630,Lidl Caldas da Rainha,"Rua São João de Deus,8",2500-885,Leiria,Caldas da Rainha,39.398493,-9.13779,,"https://www.google.com/maps/dir/?api=1&destination=39.398493000000002,-9.1377900000000007"
10631,Lidl V.N. Gaia &#8211; Centro,"Rua de Alvares Cabral,",4400-017,Porto,Vila Nova de Gaia,41.128927,-8.608951,,"https://www.google.com/maps/dir/?api=1&destination=41.128926999999997,-8.6089509999999994"
10632,Lidl Lisboa &#8211; Olivais Sul,"Rua Cidade de Bolama,20, 20A e 20B",1800-079,Lisboa,Lisboa,38.762518,-9.116566,,"https://www.google.com/maps/dir/?api=1&destination=38.762518,-9.1165660000000006"
10633,Lidl Leiria &#8211; Guimarota,"Rua Vale de Lobos,64",2410-078,Leiria,Leiria,39.731585,-8.798963,,"https://www.google.com/maps/dir/?api=1&destination=39.731585000000003,-8.7989630000000005"
10634,Lidl Odivelas &#8211; Heróis de Chaimite,Rua General Alves Roçadas (Nacional 8)/ Rua Heróis de Chaimite s/n,2675-374,Lisboa,Odivelas,38.797192,-9.169139,,"https://www.google.com/maps/dir/?api=1&destination=38.797192000000003,-9.1691389999999995"
10635,Lidl Lourinhã,"Av. António José de Almeida,49",2530-113,Lisboa,Lourinhã,39.246452,-9.313268,,"https://www.google.com/maps/dir/?api=1&destination=39.246451999999998,-9.3132680000000008"
10636,Lidl Almeirim,"Rua do Matadouro Municipal,123",2080-107,Santarém,Almeirim,39.19442,-8.61957,,"https://www.google.com/maps/dir/?api=1&destination=39.194420000000001,-8.6195699999999995"
10637,Lidl Viseu &#8211; Repeses,"Rua da APPACDM,",3500-719,Viseu,Viseu,40.631109,-7.931484,,"https://www.google.com/maps/dir/?api=1&destination=40.631109000000002,-7.9314840000000002"
10598,Lidl Maia &#8211; Moreira,"Rua Eng. Frederico Ulrich,",4470-605,Porto,Maia,41.257198,-8.644514,,"https://www.google.com/maps/dir/?api=1&destination=41.257198000000002,-8.6445139999999991"
10599,Lidl Lisboa &#8211; R. Leão de Oliveira,"M. Alcântara - Rua Leão de Oliveira,",1300-350,Lisboa,Lisboa,38.705572,-9.17883,,"https://www.google.com/maps/dir/?api=1&destination=38.705571999999997,-9.1788299999999996"
10600,Lidl Gondomar &#8211; Baguim do Monte,"Rua D. António Castro Meireles, ,243",4435-668,Porto,Gondomar,41.182544,-8.537897,,"https://www.google.com/maps/dir/?api=1&destination=41.182544,-8.5378969999999992"
10601,Lidl Sintra &#8211; Pêro Pinheiro,"Av. da Liberdade,151",2715-004,Lisboa,Sintra,38.86114,-9.32697,,"https://www.google.com/maps/dir/?api=1&destination=38.861139999999999,-9.3269699999999993"
10602,Lidl Quarteira,"Urb. Al-Sakia, Fonte Santa Lt LEE,2",8125-020,Faro,Loulé,37.080359,-8.082056,,"https://www.google.com/maps/dir/?api=1&destination=37.080359000000001,-8.0820559999999997"
10603,Lidl Estremoz,"IP2-Adega do Perdigão,",7100-064,Évora,Estremoz,38.843712,-7.606614,,"https://www.google.com/maps/dir/?api=1&destination=38.843711999999996,-7.6066140000000004"
10604,Lidl Cantanhede,"Av. Prof. Anibal de Oliveira,",3060-851,Coimbra,Cantanhede,40.350203,-8.58089,,"https://www.google.com/maps/dir/?api=1&destination=40.350203,-8.5808900000000001"
10605,Lidl Seixal &#8211; Belverde,"Av. do Mar,",2845-484,Setúbal,Seixal,38.594941,-9.145615,,"https://www.google.com/maps/dir/?api=1&destination=38.594940999999999,-9.1456149999999994"
10606,Lidl Matosinhos &#8211; S. Mamede de Infesta,"Rua Santos Dias ,725",4465-255,Porto,Matosinhos,41.19891,-8.609639,,"https://www.google.com/maps/dir/?api=1&destination=41.198909999999998,-8.6096389999999996"
10607,Lidl Barreiro &#8211; Rua da Indústria,"Rua da Indústria,19",2835-418,Setúbal,Barreiro,38.668408,-9.056125,,"https://www.google.com/maps/dir/?api=1&destination=38.668407999999999,-9.0561249999999998"
10608,Lidl Seixal &#8211; Fogueteiro,"Av. dos Resistentes Antifascistas ,60",2845-147,Setúbal,Seixal,38.615322,-9.108934,,"https://www.google.com/maps/dir/?api=1&destination=38.615321999999999,-9.1089339999999996"
10609,Lidl Barcelos &#8211; Rua Filipa Borges,"Rua Filipa Borges,",4750-822,Braga,Barcelos,41.530493,-8.630023,,"https://www.google.com/maps/dir/?api=1&destination=41.530493,-8.6300229999999996"
10610,Lidl Espinho &#8211; Rua 43,"Rua 43 ,N° 582",4500-815,Aveiro,Espinho,41.000084,-8.638425,,"https://www.google.com/maps/dir/?api=1&destination=41.000084000000001,-8.6384249999999998"
10611,Lidl Cascais &#8211; Abóboda,"Rua Luís Amaro Bexiga,30",2785-035,Lisboa,Cascais,38.72841,-9.33541,,"https://www.google.com/maps/dir/?api=1&destination=38.728409999999997,-9.3354099999999995"
10612,Lidl Amadora &#8211; Alfragide,"Estrada da Ponte Lt.,4",2610-141,Lisboa,Amadora,38.740631,-9.22507,,"https://www.google.com/maps/dir/?api=1&destination=38.740631,-9.2250700000000005"
10613,Lidl Viana do Castelo &#8211; Eça de Queirós,"Rua Eça de Queirós,111",4900-432,Viana do Castelo,Viana do Castelo,41.706067,-8.819512,,"https://www.google.com/maps/dir/?api=1&destination=41.706066999999997,-8.8195119999999996"
10614,Lidl Sintra &#8211; Linhó,"Avenida Pedro Álvares Cabral,212",2710-297,Lisboa,Sintra,38.759611,-9.377899,,"https://www.google.com/maps/dir/?api=1&destination=38.759611,-9.3778989999999993"
10615,Lidl Estarreja &#8211; Rua Alexandre Miranda,"Rua Alexandre Miranda ,1",3860-351,Aveiro,Estarreja,40.761301,-8.570229,,"https://www.google.com/maps/dir/?api=1&destination=40.761301000000003,-8.5702289999999994"
10616,Lidl Cascais &#8211; Tires,"Rua Almeida Garrett,441, 441 A",2785-338,Lisboa,Cascais,38.714522,-9.344645,,"https://www.google.com/maps/dir/?api=1&destination=38.714522000000002,-9.3446449999999999"
10617,Lidl Lourosa,"Avenida Principal,3729",4535-014,Aveiro,Santa Maria da Feira,40.98001,-8.536269,,"https://www.google.com/maps/dir/?api=1&destination=40.98001,-8.5362690000000008"
10578,Lidl Tavira,"Largo Sto Amaro - Armazém Quimigal,",8800-703,Faro,Tavira,37.12035,-7.655369,,"https://www.google.com/maps/dir/?api=1&destination=37.120350000000002,-7.6553690000000003"
10579,Lidl Loulé,"Sítio da Costa, Av. Andrade de Sousa,",8100-728,Faro,Loulé,37.135941,-8.031654,,"https://www.google.com/maps/dir/?api=1&destination=37.135941000000003,-8.0316539999999996"
10580,Lidl Vila Real de Santo António,"Hortas (UA: ,332)",8900-228,Faro,Vila Real de Santo António,37.188548,-7.445179,,"https://www.google.com/maps/dir/?api=1&destination=37.188547999999997,-7.4451790000000004"
10581,Lidl Montemor-o-Novo,"R. Curvo Semedo, Lot. Terrado, L. ,1",7050-165,Évora,Montemor-o-Novo,38.648178,-8.221836,,"https://www.google.com/maps/dir/?api=1&destination=38.648178000000001,-8.2218359999999997"
10582,Lidl Lagos &#8211; Av. República,"Av. da República (UA:,303)",8600-643,Faro,Lagos,37.104714,-8.68422,,"https://www.google.com/maps/dir/?api=1&destination=37.104714000000001,-8.6842199999999998"
10583,Lidl São Brás de Alportel,"EN 2 - Calçada,",8150-034,Faro,São Brás de Alportel,37.146628,-7.855902,,"https://www.google.com/maps/dir/?api=1&destination=37.146628,-7.8559020000000004"
10584,Lidl Vendas Novas,"Rua do Polígono,",7080-116,Évora,Vendas Novas,38.678783,-8.449285,,"https://www.google.com/maps/dir/?api=1&destination=38.678783000000003,-8.4492849999999997"
10585,Lidl Vila Viçosa,"Rua Duque Dom Jaime,",7160-251,Évora,Vila Viçosa,38.785436,-7.423506,,"https://www.google.com/maps/dir/?api=1&destination=38.785435999999997,-7.4235059999999997"
10586,Lidl Reguengos de Monsaraz,"Via do Grande Lago nº ,25 - Poente",7200-483,Évora,Reguengos de Monsaraz,38.424063,-7.546033,,"https://www.google.com/maps/dir/?api=1&destination=38.424062999999997,-7.5460330000000004"
10587,Lidl Almada &#8211; Pragal,"Rua de Abel Salazar,11",2805-312,Setúbal,Almada,38.670664,-9.170827,,"https://www.google.com/maps/dir/?api=1&destination=38.670664000000002,-9.1708269999999992"
10588,Lidl Vila do Bispo,"Senhora do Amparo, EN,268",8650-428,Faro,Vila do Bispo,37.08195,-8.910208,,"https://www.google.com/maps/dir/?api=1&destination=37.081949999999999,-8.9102080000000008"
10589,Lidl Montemor-o-Velho,"Antiga Estrada Nacional ,111",3140-202,Coimbra,Montemor-o-Velho,40.174592,-8.667852,,"https://www.google.com/maps/dir/?api=1&destination=40.174591999999997,-8.6678519999999999"
10590,Lidl Tábua,"Rua do Estádio Municipal,7",3420-328,Coimbra,Tábua,40.366752,-8.025439,,"https://www.google.com/maps/dir/?api=1&destination=40.366751999999998,-8.0254390000000004"
10591,Lidl Alcanena,Avenida Ilha do Sal,2380-510,Santarém,Alcanena,39.4631,-8.661866,,"https://www.google.com/maps/dir/?api=1&destination=39.463099999999997,-8.6618659999999998"
10592,Lidl Nelas,"Av. Dr. Fortunato de Almeida,",3520-056,Viseu,Nelas,40.539438,-7.853003,,"https://www.google.com/maps/dir/?api=1&destination=40.539437999999997,-7.8530030000000002"
10593,Lidl Felgueiras,"Rua Prof. Joaquim Barros Leite,",4610-211,Porto,Felgueiras,41.361842,-8.198448,,"https://www.google.com/maps/dir/?api=1&destination=41.361842000000003,-8.1984480000000008"
10594,Lidl Castelo Branco &#8211; Montalvão,"Av. Prof. Dr. Egas Moniz,",6000-901,Castelo Branco,Castelo Branco,39.812443,-7.512844,,"https://www.google.com/maps/dir/?api=1&destination=39.812443000000002,-7.5128440000000003"
10595,Lidl V.N. Gaia &#8211; Canidelo,"Rua Nova de Alvites, Nº ,231",4400-514,Porto,Vila Nova de Gaia,41.127719,-8.651233,,"https://www.google.com/maps/dir/?api=1&destination=41.127718999999999,-8.6512329999999995"
10596,Lidl Famalicão &#8211; Ribeirão,"EN14Km 21,1-Av. Portas do Minho 344,",4760-702,Braga,Vila Nova de Famalicão,41.353497,-8.552195,,"https://www.google.com/maps/dir/?api=1&destination=41.353496999999997,-8.5521949999999993"
10597,Lidl Seixal &#8211; Corroios,"Av. Vieira da Silva (UA: ,307)",2855-578,Setúbal,Seixal,38.626614,-9.154931,,"https://www.google.com/maps/dir/?api=1&destination=38.626613999999996,-9.1549309999999995"
10558,Lidl Famalicão &#8211; Humberto Delgado,"Avenida Marechal Humberto Delgado,",4760-012,Braga,Vila Nova de Famalicão,41.404997,-8.516329,,"https://www.google.com/maps/dir/?api=1&destination=41.404997000000002,-8.5163290000000007"
10559,Lidl Maia &#8211; Nogueira,"Rua Senhora da Hora, ,108",4475-525,Porto,Maia,41.239791,-8.587099,,"https://www.google.com/maps/dir/?api=1&destination=41.239790999999997,-8.5870990000000003"
10560,Lidl Tondela,"R. M. J. R. Azevedo,,199-Alto Pendão",3460-523,Viseu,Tondela,40.50294,-8.081066,,"https://www.google.com/maps/dir/?api=1&destination=40.502940000000002,-8.0810659999999999"
10561,Lidl Bragança,"R. Dr. Alexandre Faria, B. Estação,",5300-128,Bragança,Bragança,41.810698,-6.762857,,"https://www.google.com/maps/dir/?api=1&destination=41.810698000000002,-6.7628570000000003"
10562,Lidl Paços de Ferreira,"R. Dr. Jaime de Barros,",4590-892,Porto,Paços de Ferreira,41.280305,-8.375494,,"https://www.google.com/maps/dir/?api=1&destination=41.280304999999998,-8.3754939999999998"
10563,Lidl Coimbra &#8211; Eiras,Rua Dr. Manuel Almeida e Sousa,3020-258,Coimbra,Coimbra,40.224935,-8.439495,,"https://www.google.com/maps/dir/?api=1&destination=40.224935000000002,-8.4394950000000009"
10564,Lidl Lamego,"Lugar de Calvilhe,",5100-100,Viseu,Lamego,41.081044,-7.798703,,"https://www.google.com/maps/dir/?api=1&destination=41.081043999999999,-7.7987029999999997"
10565,Lidl Lousada,"Rua António Gomes Ribeiro,N/A",4620-620,Porto,Lousada,41.270998,-8.283087,,"https://www.google.com/maps/dir/?api=1&destination=41.270997999999999,-8.2830870000000001"
10566,Lidl V.N. Gaia &#8211; Gulpilhares,"Rua Salvador Brandão, ,1316",4405-702,Porto,Vila Nova de Gaia,41.071617,-8.626406,,"https://www.google.com/maps/dir/?api=1&destination=41.071617000000003,-8.6264059999999994"
10567,Lidl Penafiel,"Rua do Sameiro,60",4560-232,Porto,Penafiel,41.211526,-8.271418,,"https://www.google.com/maps/dir/?api=1&destination=41.211525999999999,-8.2714180000000006"
10568,Lidl São Pedro do Sul,"Avenida da Ponte,",3660-511,Viseu,São Pedro do Sul,40.759756,-8.059697,,"https://www.google.com/maps/dir/?api=1&destination=40.759756000000003,-8.0596969999999999"
10569,Lidl Mealhada,"Rua das Padeiras da Mealhada,",3050-323,Aveiro,Mealhada,40.373793,-8.448215,,"https://www.google.com/maps/dir/?api=1&destination=40.373792999999999,-8.4482149999999994"
10570,Lidl Ponte de Lima,"Rua da Lebre, Nº ,7",4990-408,Viana do Castelo,Ponte de Lima,41.772388,-8.575207,,"https://www.google.com/maps/dir/?api=1&destination=41.772387999999999,-8.5752070000000007"
10571,Lidl Vieira do Minho,"Av. João Torre - Lugar de Sobreiro,",4850-523,Braga,Vieira do Minho,41.636614,-8.140683,,"https://www.google.com/maps/dir/?api=1&destination=41.636614000000002,-8.1406829999999992"
10572,Lidl Vizela,"Rua Guilherme Caldas Peixoto,",4815-433,Braga,Vizela,41.369895,-8.311241,,"https://www.google.com/maps/dir/?api=1&destination=41.369895,-8.3112410000000008"
10573,Lidl Chaves,"Av. da Trindade,",5400-554,Vila Real,Chaves,41.757574,-7.470861,,"https://www.google.com/maps/dir/?api=1&destination=41.757573999999998,-7.4708610000000002"
10574,Lidl Seixal &#8211; Amora,"Av. Baia Natural do Seixal,",2845-606,Setúbal,Seixal,38.631064,-9.118611,,"https://www.google.com/maps/dir/?api=1&destination=38.631064000000002,-9.1186109999999996"
10575,Lidl Beja,"IP2 Km 345,",7800-346,Beja,Beja,38.032467,-7.873037,,"https://www.google.com/maps/dir/?api=1&destination=38.032466999999997,-7.8730370000000001"
10576,Lidl Olhão,"E.N. 125 - Pechão - Belmonte Baixo,",8700-121,Faro,Olhão,37.029787,-7.868797,,"https://www.google.com/maps/dir/?api=1&destination=37.029786999999999,-7.8687969999999998"
10577,Lidl Faro &#8211; Bom João,"Bom Joao, lote ,1",8000-232,Faro,Faro,37.015608,-7.92319,,"https://www.google.com/maps/dir/?api=1&destination=37.015608,-7.92319"
10538,Lidl Alcácer do Sal,"Av. José Saramago,",7580-206,Setúbal,Alcácer do Sal,38.39593,-8.514199,,"https://www.google.com/maps/dir/?api=1&destination=38.39593,-8.5141989999999996"
10539,Lidl Montijo &#8211; Afonsoeiro,"Alto das Vinhas Grandes-Afonsoeiro,",2870-438,Setúbal,Montijo,38.706276,-8.947462,,"https://www.google.com/maps/dir/?api=1&destination=38.706276000000003,-8.9474619999999998"
10540,Lidl Oliveira de Azeméis,"Rua Joaquim Silva Landeau, Lações,",3720-917,Aveiro,Oliveira de Azeméis,40.85245,-8.47828,,"https://www.google.com/maps/dir/?api=1&destination=40.852449999999997,-8.4782799999999998"
10541,Lidl Odivelas &#8211; Arroja,"Av. das Acácias,AE01",2675-221,Lisboa,Odivelas,38.794816,-9.195389,,"https://www.google.com/maps/dir/?api=1&destination=38.794815999999997,-9.1953890000000005"
10542,Lidl Ponte de Sor,"Rua de Angola,",7400-213,Portalegre,Ponte de Sor,39.256453,-8.02002,,"https://www.google.com/maps/dir/?api=1&destination=39.256453,-8.0200200000000006"
10543,Lidl Lisboa &#8211; Bairro do Rio de Janeiro,"Av. Rio de Janeiro,26",1600-708,Lisboa,Lisboa,38.752404,-9.137501,,"https://www.google.com/maps/dir/?api=1&destination=38.752403999999999,-9.1375010000000003"
10544,Lidl Coruche,"Quinta das Baleias,Lote 18",2100-138,Santarém,Coruche,38.958376,-8.528888,,"https://www.google.com/maps/dir/?api=1&destination=38.958376000000001,-8.5288880000000002"
10545,Lidl Bombarral,"Rua Mouzinho de Albuquerque,km 55.1",2540-127,Leiria,Bombarral,39.255722,-9.173927,,"https://www.google.com/maps/dir/?api=1&destination=39.255721999999999,-9.1739270000000008"
10546,Lidl Sintra &#8211; Algueirão,"Casal Vale Milho-Qta. da Cavaleira,",2725-041,Lisboa,Sintra,38.798735,-9.346088,,"https://www.google.com/maps/dir/?api=1&destination=38.798735000000001,-9.346088"
10547,Lidl Arruda dos Vinhos,"E.N. 248 - C. Vale Quente, Km 18,5,",2630-111,Lisboa,Arruda dos Vinhos,38.982929,-9.07764,,"https://www.google.com/maps/dir/?api=1&destination=38.982928999999999,-9.0776400000000006"
10548,Lidl Sintra &#8211; Terrugem,"Av. 29 de Agosto,80",2705-866,Lisboa,Sintra,38.844369,-9.375725,,"https://www.google.com/maps/dir/?api=1&destination=38.844369,-9.3757249999999992"
10549,Lidl Lisboa &#8211; Rua Maria da Fonte,"R. M. Fonte-M. Forno Tijolo, Lj. ,37",1170-221,Lisboa,Lisboa,38.725432,-9.133837,,"https://www.google.com/maps/dir/?api=1&destination=38.725431999999998,-9.1338369999999998"
10550,Lidl Lisboa &#8211; Av. Visconde Valmor,"Av. Visconde Valmor,68",1050-242,Lisboa,Lisboa,38.737742,-9.150392,,"https://www.google.com/maps/dir/?api=1&destination=38.737741999999997,-9.1503920000000001"
10551,Lidl Viseu &#8211; Pascoal,"Avenida do Alto de Abraveses,Km1",3515-828,Viseu,Viseu,40.686944,-7.927531,,"https://www.google.com/maps/dir/?api=1&destination=40.686943999999997,-7.9275310000000001"
10552,Lidl Matosinhos &#8211; Monte dos Burgos,"R. Eng. António Costa Reis, ,302/494",4460-235,Porto,Matosinhos,41.184469,-8.632031,,"https://www.google.com/maps/dir/?api=1&destination=41.184469,-8.6320309999999996"
10553,Lidl Pombal,"Estrada de Ansião,",3100-474,Leiria,Pombal,39.917077,-8.62019,,"https://www.google.com/maps/dir/?api=1&destination=39.917076999999999,-8.6201899999999991"
10554,Lidl V.N. Gaia &#8211; Santa Marinha,"Avenida dos Descobrimentos,66",4400-103,Porto,Vila Nova de Gaia,41.119524,-8.626682,,"https://www.google.com/maps/dir/?api=1&destination=41.119523999999998,-8.6266820000000006"
10555,Lidl Matosinhos &#8211; Senhora da Hora,"Av. Ant. Domingues Santos, 431-461",4460-237,Porto,Matosinhos,41.18572,-8.65932,,"https://www.google.com/maps/dir/?api=1&destination=41.185720000000003,-8.6593199999999992"
10556,Lidl Figueira da Foz,"Avenida Dom João II - Buarcos,",3080-229,Coimbra,Figueira da Foz,40.175781,-8.896465,,"https://www.google.com/maps/dir/?api=1&destination=40.175781000000001,-8.8964649999999992"
10557,Lidl Porto &#8211; Agramonte,"R.Agramonte ,291-329,R.M.F.Soares 175-287",4150-335,Porto,Porto,41.157871,-8.633522,,"https://www.google.com/maps/dir/?api=1&destination=41.157871,-8.6335219999999993"
10518,Lidl Castelo de Paiva,"Rua Strecht de Vasconcelos,300",4550-150,Aveiro,Castelo de Paiva,41.040326,-8.269681,,"https://www.google.com/maps/dir/?api=1&destination=41.040326,-8.2696810000000003"
10519,Lidl Vila do Conde &#8211; EN 13,"Rua 5 de outubro,km 1",4480-739,Porto,Vila do Conde,41.36323,-8.747002,,"https://www.google.com/maps/dir/?api=1&destination=41.363230000000001,-8.7470020000000002"
10520,Lidl Guimarães &#8211; Pevidém,"Av. Soc. Musical de Pevidém,",4835-297,Braga,Guimarães,41.422937,-8.352656,,"https://www.google.com/maps/dir/?api=1&destination=41.422936999999997,-8.3526559999999996"
10521,Lidl Felgueiras &#8211; Lixa,"Travessa do Alto da Lixa,N/A",4615-013,Porto,Amarante,41.315748,-8.137726,,"https://www.google.com/maps/dir/?api=1&destination=41.315747999999999,-8.1377260000000007"
10522,Lidl Matosinhos &#8211; Custóias,Rua Cândido dos Reis,4460-701,Porto,Matosinhos,41.200393,-8.651649,,"https://www.google.com/maps/dir/?api=1&destination=41.200392999999998,-8.6516490000000008"
10523,Lidl Lisboa &#8211; Infante D. Henrique,"Av. Infante D. Henrique, L. ,17/18",1800-217,Lisboa,Lisboa,38.747448,-9.104673,,"https://www.google.com/maps/dir/?api=1&destination=38.747447999999999,-9.104673"
10524,Lidl Sines,"Loteamento Municipal da Cidade Desportiva, Lote P9",7520-137,Setúbal,Sines,37.957155,-8.86089,,"https://www.google.com/maps/dir/?api=1&destination=37.957155,-8.8608899999999995"
10525,Lidl Sesimbra &#8211; Quinta do Conde,"Cova dos Vidros-Lote ,84",2975-312,Setúbal,Sesimbra,38.566132,-9.038161,,"https://www.google.com/maps/dir/?api=1&destination=38.566132000000003,-9.0381610000000006"
10526,Lidl Portimão,"Barranco do Rodrigo - Portimão - V,7",8500-311,Faro,Portimão,37.133017,-8.551906,,"https://www.google.com/maps/dir/?api=1&destination=37.133017000000002,-8.5519060000000007"
10527,Lidl Palmela &#8211; EN 379,"E.N. 379,KM 34.9",2950-302,Setúbal,Palmela,38.5665,-8.92563,,"https://www.google.com/maps/dir/?api=1&destination=38.566499999999998,-8.92563"
10528,Lidl Leiria &#8211; Marrazes,"Rua da Carreira de Tiro,",2415-592,Leiria,Leiria,39.763075,-8.818473,,"https://www.google.com/maps/dir/?api=1&destination=39.763075000000001,-8.8184729999999991"
10529,Lidl Nazaré,"Av. Abílio Santos e Sousa,",2450-287,Leiria,Nazaré,39.611717,-9.06353,,"https://www.google.com/maps/dir/?api=1&destination=39.611716999999999,-9.0635300000000001"
10530,Lidl Sintra &#8211; Mem Martins,"Estrada Nacional ,249, Km 14,700,",2725-397,Lisboa,Sintra,38.77912,-9.345861,,"https://www.google.com/maps/dir/?api=1&destination=38.779119999999999,-9.3458609999999993"
10531,Lidl Lisboa &#8211; Bairro Azul,"Av. Ressano Garcia,1 C/V",1070-234,Lisboa,Lisboa,38.734345,-9.154652,,"https://www.google.com/maps/dir/?api=1&destination=38.734344999999998,-9.1546520000000005"
10532,Lidl Amarante &#8211; S. Gonçalo,"Rua Manuel António da Mota,392",4600-282,Porto,Amarante,41.274057,-8.089424,,"https://www.google.com/maps/dir/?api=1&destination=41.274056999999999,-8.0894239999999993"
10533,Lidl Vidigueira,"Zona Industrial,",7960-305,Beja,Vidigueira,38.203801,-7.800936,,"https://www.google.com/maps/dir/?api=1&destination=38.203800999999999,-7.8009360000000001"
10534,Lidl Lisboa &#8211; Sete Rios,"Av. Columbano Bordalo Pinheiro,",1070-060,Lisboa,Lisboa,38.737931,-9.160554,,"https://www.google.com/maps/dir/?api=1&destination=38.737931000000003,-9.1605539999999994"
10535,Lidl Mozelos,"Rua Comendador Américo Ferreira Amorim, nº 1245",4535-186,Aveiro,Santa Maria da Feira,40.993422,-8.573056,,"https://www.google.com/maps/dir/?api=1&destination=40.993422000000002,-8.5730559999999993"
10536,Lidl Sesimbra &#8211; Av. João Paulo II,"Av. João Paulo II,",2970-649,Setúbal,Sesimbra,38.468561,-9.100379,,"https://www.google.com/maps/dir/?api=1&destination=38.468561000000001,-9.1003790000000002"
10537,Lidl V.N. Gaia &#8211; Avintes,"EN 222,KM 5.9",4430-755,Porto,Vila Nova de Gaia,41.092804,-8.542233,,"https://www.google.com/maps/dir/?api=1&destination=41.092804000000001,-8.5422329999999995"
10498,Lidl Cascais &#8211; Sassoeiros,"R. Luís Camões,268",2775-376,Lisboa,Cascais,38.701611,-9.326262,,"https://www.google.com/maps/dir/?api=1&destination=38.701611,-9.3262619999999998"
10499,Lidl Setúbal &#8211; São Sebastião,"Av. da Bela Vista,",2910-421,Setúbal,Setúbal,38.521829,-8.867366,,"https://www.google.com/maps/dir/?api=1&destination=38.521828999999997,-8.8673660000000005"
10500,Lidl Maia &#8211; Vermoim,"Rua Avelino Francisco Pereira, Nº 55",4470-289,Porto,Maia,41.226431,-8.611136,,"https://www.google.com/maps/dir/?api=1&destination=41.226430999999998,-8.6111360000000001"
10501,Lidl V.N. Gaia &#8211; Mafamude,"Rua 25 de Abril,1069",4430-051,Porto,Vila Nova de Gaia,41.063141,-8.589524,,"https://www.google.com/maps/dir/?api=1&destination=41.063141000000002,-8.5895240000000008"
10502,Lidl Almada &#8211; Feijó,"Rua dos Castanheiros,30, 30A",2810-035,Setúbal,Almada,38.654496,-9.158,,"https://www.google.com/maps/dir/?api=1&destination=38.654496000000002,-9.1579999999999995"
10503,Lidl Elvas,"Avenida de Badajoz,1",7350-097,Portalegre,Elvas,38.875354,-7.159549,,"https://www.google.com/maps/dir/?api=1&destination=38.875354000000002,-7.1595490000000002"
10504,Lidl Palmela &#8211; Pinhal Novo,"Villas do Terrim,",2955-267,Setúbal,Palmela,38.609918,-8.923026,,"https://www.google.com/maps/dir/?api=1&destination=38.609918,-8.9230260000000001"
10505,Lidl V.N. Gaia &#8211; São Félix da Marinha,"R. dos Loureiros, ,35-Lugar de Brito",4410-150,Porto,Vila Nova de Gaia,41.072417,-8.63996,,"https://www.google.com/maps/dir/?api=1&destination=41.072417000000002,-8.6399600000000003"
10506,Lidl Braga &#8211; Av. R. Smith,"Av. Robert Smith,2",4715-249,Braga,Braga,41.54233,-8.400499,,"https://www.google.com/maps/dir/?api=1&destination=41.54233,-8.4004989999999999"
10507,Lidl Fundão,"E N 18-Vale de Canas,",6230-298,Castelo Branco,Fundão,40.157651,-7.497049,,"https://www.google.com/maps/dir/?api=1&destination=40.157651000000001,-7.4970489999999996"
10508,Lidl V.N. Gaia &#8211; Pedroso,"Largo das Alminhas das Barrancas,60",4415-343,Porto,Vila Nova de Gaia,41.046383,-8.563468,,"https://www.google.com/maps/dir/?api=1&destination=41.046382999999999,-8.5634680000000003"
10509,Lidl Santarém &#8211; Av. Dr. Francisco Sá Carneiro,"Av. Dr. Francisco Sá Carneiro, Santarém",2005-352,Santarém,Santarém,39.236661,-8.686011,,"https://www.google.com/maps/dir/?api=1&destination=39.236660999999998,-8.6860110000000006"
10510,Lidl Vila Verde &#8211; Rua dos Bombeiros,"Rua dos Bombeiros,165",4730-752,Braga,Vila Verde,41.646607,-8.437683,,"https://www.google.com/maps/dir/?api=1&destination=41.646607000000003,-8.4376829999999998"
10511,Lidl Gondomar &#8211; S. Pedro da Cova,"Estr. D. Miguel - Lugar da Covilhã,",4510-243,Porto,Gondomar,41.151264,-8.51642,,"https://www.google.com/maps/dir/?api=1&destination=41.151263999999998,-8.5164200000000001"
10512,Lidl Lisboa &#8211; Alvaláxia,"Rua Prof. Fernando da Fonseca,",1600-617,Lisboa,Lisboa,38.761705,-9.164761,,"https://www.google.com/maps/dir/?api=1&destination=38.761704999999999,-9.1647610000000004"
10513,Lidl Braga &#8211; Av. Imaculada Conceição,"Avenida da Imaculada Conceição,523",4700-034,Braga,Braga,41.543985,-8.426518,,"https://www.google.com/maps/dir/?api=1&destination=41.543984999999999,-8.4265179999999997"
10514,Lidl Penalva do Castelo,"Rua Quinta do Peliche, Covas de Coina",2830-441,Setúbal,Barreiro,38.589119,-9.022001,,"https://www.google.com/maps/dir/?api=1&destination=38.589118999999997,-9.0220009999999995"
10515,Lidl Setúbal &#8211; Azeitão,"Rua José da Silva Xavier, Lote ,41",2925-547,Setúbal,Setúbal,38.52315,-9.017866,,"https://www.google.com/maps/dir/?api=1&destination=38.523150000000001,-9.0178659999999997"
10516,Lidl Sintra &#8211; Mercado Rio de Mouro,"Av. Gil Eanes, Merc. Rio Mouro, Lj,1",2635-003,Lisboa,Sintra,38.780573,-9.322681,,"https://www.google.com/maps/dir/?api=1&destination=38.780572999999997,-9.3226809999999993"
10517,Lidl Barcelos,"Rua da Farmácia - Lugar de Pena - Gamil,",4755-225,Braga,Barcelos,41.522168,-8.592442,,"https://www.google.com/maps/dir/?api=1&destination=41.522168000000001,-8.5924420000000001"
10478,Lidl Odemira,"E.N. 393 - Portas do Transval,",7630-208,Beja,Odemira,37.591592,-8.662546,,"https://www.google.com/maps/dir/?api=1&destination=37.591591999999999,-8.6625460000000007"
10479,Lidl São João da Madeira &#8211; Oliveira Júnior,Rua António José Oliveira Júnior e Rua da Indústria,3700-206,Aveiro,São João da Madeira,40.903609,-8.495514,,"https://www.google.com/maps/dir/?api=1&destination=40.903609000000003,-8.495514"
10480,Lidl Silves &#8211; Rua Cruz da Palmeira,"Rua Cruz da Palmeira,",8300-010,Faro,Silves,37.18692,-8.442466,,"https://www.google.com/maps/dir/?api=1&destination=37.186920000000001,-8.4424659999999996"
10481,Lidl Sintra &#8211; Massamá Norte,"Rua D. Matilde, Lote,177-179",2605-246,Lisboa,Sintra,38.761606,-9.281143,,"https://www.google.com/maps/dir/?api=1&destination=38.761606,-9.2811430000000001"
10482,Lidl Porto &#8211; Av Fernão de Magalhães,"Av Fernão de Magalhães,897-1009",4350-167,Porto,Porto,41.1586,-8.593686,,"https://www.google.com/maps/dir/?api=1&destination=41.1586,-8.5936859999999999"
10483,Lidl V.N. Famalicão &#8211; Pousada de Saramagos,"Avenida São Martinho,57",4770-409,Braga,Vila Nova de Famalicão,41.426141,-8.433637,,"https://www.google.com/maps/dir/?api=1&destination=41.426141000000001,-8.4336369999999992"
10484,Lidl Oeiras &#8211; Algés,"Rua João Chagas, ,130",1495-070,Lisboa,Oeiras,38.706258,-9.238338,,"https://www.google.com/maps/dir/?api=1&destination=38.706257999999998,-9.2383380000000006"
10485,Lidl Albergaria-a-Velha,Estrada Nacional 1,3850-230,Aveiro,Albergaria-a-Velha,40.713464,-8.482316,,"https://www.google.com/maps/dir/?api=1&destination=40.713464000000002,-8.4823160000000009"
10486,Lidl Esposende,"EN ,13 - Lugar de Areia - Fonte Boa",4740-419,Braga,Esposende,41.499717,-8.739303,,"https://www.google.com/maps/dir/?api=1&destination=41.499716999999997,-8.7393029999999996"
10487,Lidl Caldas da Rainha,"R.Dr.Bernardino A.C.Pargana,UA 107",2500-241,Leiria,Caldas da Rainha,39.406187,-9.13482,,"https://www.google.com/maps/dir/?api=1&destination=39.406187000000003,-9.1348199999999995"
10488,Lidl Matosinhos &#8211; Rua Roberto Ivens,"Rua Roberto Ivens,",4450-250,Porto,Matosinhos,41.179422,-8.690353,,"https://www.google.com/maps/dir/?api=1&destination=41.179422000000002,-8.690353"
10489,Lidl Évora,Rua Horta das Figueiras,7005-212,Évora,Évora,38.556793,-7.914966,,"https://www.google.com/maps/dir/?api=1&destination=38.556792999999999,-7.9149659999999997"
10490,Lidl Vila Franca de Xira &#8211; EN1,"Caminho Municipal 1237,2",2600-208,Lisboa,Vila Franca de Xira,38.954997,-8.988898,,"https://www.google.com/maps/dir/?api=1&destination=38.954996999999999,-8.9888980000000007"
10491,Lidl Lousã,"Rua Quinta das Camélias,2",3200-222,Coimbra,Lousã,40.121108,-8.24905,,"https://www.google.com/maps/dir/?api=1&destination=40.121108,-8.2490500000000004"
10492,Lidl Coimbra &#8211; Santa Clara,"Rua do Lagar, Lote ,1",3040-005,Coimbra,Coimbra,40.198838,-8.439368,,"https://www.google.com/maps/dir/?api=1&destination=40.198838000000002,-8.439368"
10493,Lidl Póvoa de Varzim,"Rua Engº Ezequiel de Campos,",4495-301,Porto,Póvoa de Varzim,41.398662,-8.719699,,"https://www.google.com/maps/dir/?api=1&destination=41.398662000000002,-8.7196990000000003"
10494,Lidl Albufeira,"Rua Baden Powell,",8200-131,Faro,Albufeira,37.096403,-8.249019,,"https://www.google.com/maps/dir/?api=1&destination=37.096403000000002,-8.2490190000000005"
10495,Lidl Guimarães &#8211; Mesão Frio,"Rua da Arcela, Nº ,2064",4810-553,Braga,Guimarães,41.453896,-8.276759,,"https://www.google.com/maps/dir/?api=1&destination=41.453896,-8.2767590000000002"
10496,Lidl Oliveira do Bairro,"Nó Oliveira do Bairro Norte-EN,235",3770-203,Aveiro,Oliveira do Bairro,40.509441,-8.494654,,"https://www.google.com/maps/dir/?api=1&destination=40.509441000000002,-8.4946540000000006"
10497,Lidl Lisboa &#8211; Rua Eng.º Paulo Barros,"Rua Eng.º Paulo Barros,n.º1D-Lj.13",1500-297,Lisboa,Lisboa,38.747022,-9.206327,,"https://www.google.com/maps/dir/?api=1&destination=38.747022000000001,-9.2063269999999999"
10458,Lidl Oliveira do Hospital,"Rua Dr. João Afonso Ferreira Dinis,",3400-173,Coimbra,Oliveira do Hospital,40.362388,-7.855132,,"https://www.google.com/maps/dir/?api=1&destination=40.362388000000003,-7.8551320000000002"
10459,Lidl Rio Tinto,"Av. Dr. Domingos Gonçalves de Sá,381",4435-123,Porto,Gondomar,41.175486,-8.556664,,"https://www.google.com/maps/dir/?api=1&destination=41.175485999999999,-8.5566639999999996"
10460,Lidl Macedo de Cavaleiros,"Rua Viriato Martins,",5340-281,Bragança,Macedo de Cavaleiros,41.54366,-6.959172,,"https://www.google.com/maps/dir/?api=1&destination=41.543660000000003,-6.9591719999999997"
10461,Lidl São João da Madeira,"Av. Dr. Renato Araújo,nº,865",3700-008,Aveiro,São João da Madeira,40.901684,-8.495751,,"https://www.google.com/maps/dir/?api=1&destination=40.901684000000003,-8.4957510000000003"
10462,Lidl Arganil,"Rua Mariano Lopes Morgado,360",3300-060,Coimbra,Arganil,40.223103,-8.056416,,"https://www.google.com/maps/dir/?api=1&destination=40.223103000000002,-8.0564160000000005"
10463,Lidl Aveiro &#8211; Verdemilho,Avenida da Europa nº817,3810-140,Aveiro,Aveiro,40.621723,-8.652186,,"https://www.google.com/maps/dir/?api=1&destination=40.621723000000003,-8.6521860000000004"
10464,Lidl Sintra &#8211; Agualva,"R. Ant. Antunes Martins de Oliveira,",2735-535,Lisboa,Sintra,38.771256,-9.287326,,"https://www.google.com/maps/dir/?api=1&destination=38.771256000000001,-9.2873260000000002"
10465,Lidl Sacavém &#8211; Qt.ª S. João das Areias,"Qt.ª S. João das Areias,",2685-012,Lisboa,Loures,38.797722,-9.120252,,"https://www.google.com/maps/dir/?api=1&destination=38.797722,-9.1202520000000007"
10466,Lidl Alcains,Estrada de São Domingos,6005-010,Castelo Branco,Castelo Branco,39.915767,-7.467566,,"https://www.google.com/maps/dir/?api=1&destination=39.915767000000002,-7.4675659999999997"
10467,Lidl Peso da Régua,"Av. Sacadura Cabral,",5050-071,Vila Real,Peso da Régua,41.164337,-7.799957,,"https://www.google.com/maps/dir/?api=1&destination=41.164337000000003,-7.799957"
10468,Lidl Ourém,"Av. D. Nuno Álvares Pereira,",2490-483,Santarém,Ourém,39.656878,-8.572101,,"https://www.google.com/maps/dir/?api=1&destination=39.656877999999999,-8.572101"
10469,Lidl Miranda do Corvo,"Rua 25 de Abril,",3220-185,Coimbra,Miranda do Corvo,40.089782,-8.32865,,"https://www.google.com/maps/dir/?api=1&destination=40.089782,-8.3286499999999997"
10470,Lidl Guarda,"Rua Vila de Manteigas,",6300-617,Guarda,Guarda,40.544019,-7.257194,,"https://www.google.com/maps/dir/?api=1&destination=40.544018999999999,-7.2571940000000001"
10471,Lidl Matosinhos &#8211; Leça da Palmeira,"Rua da Bataria, ,45",4450-800,Porto,Matosinhos,41.204645,-8.696563,,"https://www.google.com/maps/dir/?api=1&destination=41.204644999999999,-8.6965629999999994"
10472,Lidl Porto &#8211; Diogo Botelho,"Rua Diogo Botelho, 440 / Rua da Pasteleira,161",4150-586,Porto,Porto,41.152477,-8.652818,,"https://www.google.com/maps/dir/?api=1&destination=41.152476999999998,-8.6528179999999999"
10473,Lidl Gondomar &#8211; S. Cosme,"Rua Engº Álvaro de Sousa,",4420-230,Porto,Gondomar,41.135819,-8.537416,,"https://www.google.com/maps/dir/?api=1&destination=41.135818999999998,-8.5374160000000003"
10474,Lidl Santo Tirso,"R. J. de Stº Tirso-Lugar da Vilalva,",4780-563,Porto,Santo Tirso,41.343137,-8.473807,,"https://www.google.com/maps/dir/?api=1&destination=41.343136999999999,-8.4738070000000008"
10475,Lidl Porto &#8211; Av. Camilo,"Av. Camilo,26 / 32 / 50 / 56",4300-095,Porto,Porto,41.149251,-8.593985,,"https://www.google.com/maps/dir/?api=1&destination=41.149251,-8.593985"
10476,Lidl Alcobaça &#8211; Benedita,"Estrada Nacional ,8/6",2475-022,Leiria,Alcobaça,39.436116,-8.978935,,"https://www.google.com/maps/dir/?api=1&destination=39.436115999999998,-8.9789349999999999"
10477,Lidl Santa Comba Dão,"Av. de Santo Estevão,",3440-323,Viseu,Santa Comba Dão,40.402555,-8.13036,,"https://www.google.com/maps/dir/?api=1&destination=40.402555,-8.1303599999999996"
10438,Lidl Lisboa &#8211; Casal Ribeiro,"Avenida Casal Ribeiro, N.º 18",1000-092,Lisboa,Lisboa,38.732275,-9.142279,,"https://www.google.com/maps/dir/?api=1&destination=38.732275000000001,-9.1422790000000003"
10439,Lidl Loures &#8211; Frielas,"EN 250,",2660-001,Lisboa,Loures,38.819374,-9.14853,,"https://www.google.com/maps/dir/?api=1&destination=38.819374000000003,-9.1485299999999992"
10440,Lidl Sintra &#8211; Cacém,"Rua da Bela vista 31,",2735-184,Lisboa,Sintra,38.761642,-9.298687,,"https://www.google.com/maps/dir/?api=1&destination=38.761642000000002,-9.2986869999999993"
10441,Lidl Santiago do Cacém &#8211; Santo André,"Rua do Mercado, ZIL ,1,",7500-220,Setúbal,Santiago do Cacém,38.056178,-8.787889,,"https://www.google.com/maps/dir/?api=1&destination=38.056178000000003,-8.7878889999999998"
10442,Lidl Faro &#8211; Rua Eng. Nuno Abecassis,Rua Eng. Nuno Abecassis,8000-548,Faro,Faro,37.029733,-7.945263,,"https://www.google.com/maps/dir/?api=1&destination=37.029733,-7.9452629999999997"
10443,Lidl Sintra &#8211; Casal de Cambra,"Av. de Lisboa,",2605-004,Lisboa,Sintra,38.801054,-9.228495,,"https://www.google.com/maps/dir/?api=1&destination=38.801054000000001,-9.2284950000000006"
10444,Lidl Figueira da Foz &#8211; Billerud,"Rua Celulose de Billerud,",3080-030,Coimbra,Figueira da Foz,40.15622,-8.852408,,"https://www.google.com/maps/dir/?api=1&destination=40.156219999999998,-8.8524080000000005"
10445,Lidl Barreiro &#8211; Quinta das Canas,"Av. Escola dos Fuzileiros Navais,",2830-239,Setúbal,Barreiro,38.641554,-9.057953,,"https://www.google.com/maps/dir/?api=1&destination=38.641553999999999,-9.0579529999999995"
10446,Lidl Mangualde,"Prova - Av. Combatentes Gde Guerra,",3530-261,Viseu,Mangualde,40.60897,-7.7623,,"https://www.google.com/maps/dir/?api=1&destination=40.60897,-7.7623"
10447,Lidl Porto &#8211; Rotunda AEP,"Estrada interior da Circunvalação,13941 a 13975",4100-179,Porto,Porto,41.177502,-8.655877,,"https://www.google.com/maps/dir/?api=1&destination=41.177501999999997,-8.6558770000000003"
10448,Lidl Vale de Cambra,"Av. Dr. António Fonseca, nº 1990 - Lugar de Regadas de Baixo",3730-239,Aveiro,Vale de Cambra,40.84763,-8.391309,,"https://www.google.com/maps/dir/?api=1&destination=40.847630000000002,-8.3913089999999997"
10449,Lidl Mirandela,"Rua Joaquim Teófilo Braga,",5370-346,Bragança,Mirandela,41.491463,-7.181496,,"https://www.google.com/maps/dir/?api=1&destination=41.491463000000003,-7.1814960000000001"
10450,Lidl Entroncamento,"R.Dr.Francisco Sá Carneiro (UA:,116)",2330-148,Santarém,Entroncamento,39.473758,-8.4719,,"https://www.google.com/maps/dir/?api=1&destination=39.473757999999997,-8.4718999999999998"
10451,Lidl Loures &#8211; Moscavide,"M. Oriente, Lj.B,2.01, Av. Moscavide",1885-075,Lisboa,Loures,38.780291,-9.102584,,"https://www.google.com/maps/dir/?api=1&destination=38.780290999999998,-9.1025840000000002"
10452,Lidl Lisboa &#8211; Av. Lusíada,"R. Xavier Araujo/Av.Lusiada BL,4,12D",1600-226,Lisboa,Lisboa,38.754089,-9.190403,,"https://www.google.com/maps/dir/?api=1&destination=38.754089,-9.1904029999999999"
10453,Lidl Alenquer &#8211; Santo Estêvão,"Variante Álvaro Pedro,2",2580-351,Lisboa,Alenquer,39.039589,-8.987744,,"https://www.google.com/maps/dir/?api=1&destination=39.039588999999999,-8.9877439999999993"
10454,Lidl Seixal &#8211; Miratejo,"Rua Ferreira de Castro,",2855-238,Setúbal,Seixal,38.647579,-9.14437,,"https://www.google.com/maps/dir/?api=1&destination=38.647579,-9.1443700000000003"
10455,Lidl Seixal &#8211; Fernão Ferro,"Av. 10 de Junho,",2865-600,Setúbal,Seixal,38.567803,-9.066623,,"https://www.google.com/maps/dir/?api=1&destination=38.567802999999998,-9.0666229999999999"
10456,Lidl Póvoa de Lanhoso,"Rua Pôça de Chidelas,",4830-598,Braga,Póvoa de Lanhoso,41.575074,-8.277922,,"https://www.google.com/maps/dir/?api=1&destination=41.575074000000001,-8.2779220000000002"
10457,Lidl Santarém &#8211; Av. Bernardo Santareno,"Av. Bernardo Santareno (UA-,108)",2005-177,Santarém,Santarém,39.241542,-8.692523,,"https://www.google.com/maps/dir/?api=1&destination=39.241542000000003,-8.6925229999999996"
10418,Lidl Lisboa &#8211; J. Farinha,"Rua José Farinha,21",1500-629,Lisboa,Lisboa,38.759899,-9.196816,,"https://www.google.com/maps/dir/?api=1&destination=38.759898999999997,-9.1968160000000001"
10419,Lidl Salvaterra de Magos,"Estrada Nacional ,118",2120-066,Santarém,Salvaterra de Magos,39.028447,-8.762566,,"https://www.google.com/maps/dir/?api=1&destination=39.028447,-8.7625659999999996"
10420,Lidl Porto &#8211; Joaquim Bastos,"Rua Joaquim Bastos,182 a 200",4200-604,Porto,Porto,41.16947,-8.610626,,"https://www.google.com/maps/dir/?api=1&destination=41.169469999999997,-8.6106259999999999"
10421,Lidl Porto &#8211; Areosa,"Rua Diamantina ,238 e 340",4350-145,Porto,Porto,41.178995,-8.575739,,"https://www.google.com/maps/dir/?api=1&destination=41.178995,-8.5757390000000004"
10422,Lidl Vieira de Leiria,Rua da Marinha Grande N.º 4,2430-666,Leiria,Marinha Grande,39.868213,-8.939101,,"https://www.google.com/maps/dir/?api=1&destination=39.868212999999997,-8.9391010000000009"
10423,Lidl Grândola,"Rua D. Álvares Pereira,",7570-239,Setúbal,Grândola,38.179152,-8.567107,,"https://www.google.com/maps/dir/?api=1&destination=38.179152000000002,-8.567107"
10424,Lidl Matosinhos &#8211; Perafita,"Rua Silva Aroso/Nó de Perafita, saída A28",4455-559,Porto,Matosinhos,41.231614,-8.699013,,"https://www.google.com/maps/dir/?api=1&destination=41.231614,-8.6990130000000008"
10425,Lidl Sever do Vouga,"Rua da APCDI,",3740-115,Aveiro,Sever do Vouga,40.725421,-8.363486,,"https://www.google.com/maps/dir/?api=1&destination=40.725420999999997,-8.363486"
10426,Lidl Valença,"Av. Dr. Tito Fontes / Ponte,",4930-676,Viana do Castelo,Valença,42.027513,-8.634833,,"https://www.google.com/maps/dir/?api=1&destination=42.027512999999999,-8.6348330000000004"
10427,Lidl Amadora &#8211; Venda Nova,"Rua João de Deus,5",2700-486,Lisboa,Amadora,38.754848,-9.218717,,"https://www.google.com/maps/dir/?api=1&destination=38.754848000000003,-9.2187169999999998"
10428,Lidl Cascais &#8211; Torre,"Rua da Torre, nº ,831",2750-269,Lisboa,Cascais,38.703314,-9.443006,,"https://www.google.com/maps/dir/?api=1&destination=38.703313999999999,-9.4430060000000005"
10429,Lidl Oeiras &#8211; Área de Serviço,"A5,Km10.1",2780-000,Lisboa,Oeiras,38.710691,-9.309994,,"https://www.google.com/maps/dir/?api=1&destination=38.710690999999997,-9.3099939999999997"
10430,Lidl Almada &#8211; Sobreda,"Rua Quinta do Salgado,14",2815-756,Setúbal,Almada,38.646618,-9.180255,,"https://www.google.com/maps/dir/?api=1&destination=38.646617999999997,-9.1802550000000007"
10431,Lidl Alcochete,"Lagoa do Laparo,",2890-112,Setúbal,Alcochete,38.748773,-8.949844,,"https://www.google.com/maps/dir/?api=1&destination=38.748773,-8.9498440000000006"
10432,Lidl Setúbal &#8211; Estr. de Algeruz,"Estrada de Algeruz,",2910-279,Setúbal,Setúbal,38.536623,-8.86717,,"https://www.google.com/maps/dir/?api=1&destination=38.536622999999999,-8.8671699999999998"
10433,Lidl Penacova,"Rua Doutor Homero Pimentel,",3360-191,Coimbra,Penacova,40.270488,-8.28054,,"https://www.google.com/maps/dir/?api=1&destination=40.270488,-8.2805400000000002"
10434,Lidl Soure,"Lugar de Fujaco,",3130-200,Coimbra,Soure,40.060275,-8.618316,,"https://www.google.com/maps/dir/?api=1&destination=40.060274999999997,-8.6183160000000001"
10435,Lidl Viseu &#8211; Estrada do Sátão,"Av Prof. Reinaldo Cardoso,385",3500-188,Viseu,Viseu,40.664066,-7.89735,,"https://www.google.com/maps/dir/?api=1&destination=40.664065999999998,-7.8973500000000003"
10436,Lidl Paredes,"R. D. M. Sotto Mayor Meneses,",4580-146,Porto,Paredes,41.199046,-8.333269,,"https://www.google.com/maps/dir/?api=1&destination=41.199046000000003,-8.3332689999999996"
10437,Lidl Arcos de Valdevez,Lugar do Souto - EN 101 - Paçô,4970-243,Viana do Castelo,Arcos de Valdevez,41.394334,-8.387154,,"https://www.google.com/maps/dir/?api=1&destination=41.394334000000001,-8.3871540000000007"
10398,Lidl Famalicão &#8211; Av. Eng. Pinheiro Braga,"Av. Eng. Pinheiro Braga,",2725-093,Lisboa,Sintra,38.79949,-9.32494,,"https://www.google.com/maps/dir/?api=1&destination=38.799489999999999,-9.3249399999999998"
10399,Lidl Monte da Caparica &#8211; Univ. Nova,"Campus da Caparica,",2725-093,Lisboa,Sintra,38.79949,-9.32494,,"https://www.google.com/maps/dir/?api=1&destination=38.799489999999999,-9.3249399999999998"
10400,Lidl Torres Novas,"Estrada de Várzea,",2350-433,Santarém,Torres Novas,39.470556,-8.533152,,"https://www.google.com/maps/dir/?api=1&destination=39.470556000000002,-8.5331519999999994"
10401,Lidl Abrantes,"Av. D. João - Vale Rãs,",2200-233,Santarém,Abrantes,39.468642,-8.20384,,"https://www.google.com/maps/dir/?api=1&destination=39.468642000000003,-8.2038399999999996"
10402,Lidl Marinha Grande,"Avenida ,1º de Maio",2430-211,Leiria,Marinha Grande,39.743329,-8.927467,,"https://www.google.com/maps/dir/?api=1&destination=39.743329000000003,-8.927467"
10403,Lidl Castelo Branco,"Rua Camilo Castelo Branco,18",6000-157,Castelo Branco,Castelo Branco,39.821176,-7.486383,,"https://www.google.com/maps/dir/?api=1&destination=39.821176000000001,-7.486383"
10404,Lidl Amadora &#8211; Rua de Angola,"Rua de Angola,13",2700-058,Lisboa,Amadora,38.759061,-9.244378,,"https://www.google.com/maps/dir/?api=1&destination=38.759061000000003,-9.2443779999999993"
10405,Lidl Torres Vedras,"Rua António Augusto Cabral ,23",2560-307,Lisboa,Torres Vedras,39.082012,-9.262967,,"https://www.google.com/maps/dir/?api=1&destination=39.082011999999999,-9.2629669999999997"
10406,Lidl Loures,"Rua Prof. Dr. Egas Moniz,",2670-583,Lisboa,Loures,38.81798,-9.120064,,"https://www.google.com/maps/dir/?api=1&destination=38.817979999999999,-9.1200639999999993"
10407,Lidl Loures &#8211; Portela,"Q. da Vitória - R. Vasco da Gama,,2",2685-244,Lisboa,Loures,38.785514,-9.116785,,"https://www.google.com/maps/dir/?api=1&destination=38.785513999999999,-9.1167850000000001"
10408,Lidl Alcobaça,"Estrada de Leiria,",2460-059,Leiria,Alcobaça,39.550334,-8.973053,,"https://www.google.com/maps/dir/?api=1&destination=39.550333999999999,-8.9730530000000002"
10409,Lidl Peniche,"Rua Azeredo Perdigão,",2520-626,Leiria,Peniche,39.364844,-9.380017,,"https://www.google.com/maps/dir/?api=1&destination=39.364843999999998,-9.3800170000000005"
10410,Lidl Rio Maior,"Avenida Doutor Mário Soares,",2040-413,Santarém,Rio Maior,39.341411,-8.931514,,"https://www.google.com/maps/dir/?api=1&destination=39.341411000000001,-8.931514"
10411,Lidl Odivelas &#8211; Caneças,"Estrada de Montemor,16",1675-483,Lisboa,Odivelas,38.814966,-9.214834,,"https://www.google.com/maps/dir/?api=1&destination=38.814965999999998,-9.2148339999999997"
10412,Lidl Póvoa de Santa Iria,"EN 10 - KM 134,7,",2625-266,Lisboa,Vila Franca de Xira,38.8613,-9.064948,,"https://www.google.com/maps/dir/?api=1&destination=38.8613,-9.0649479999999993"
10413,Lidl Alverca do Ribatejo,"Rua de Santa Maria,2-2A",2615-129,Lisboa,Vila Franca de Xira,38.894999,-9.040819,,"https://www.google.com/maps/dir/?api=1&destination=38.894998999999999,-9.0408190000000008"
10414,Lidl Portalegre,"Rua Prof Angelo Monteiro,",7300-041,Portalegre,Portalegre,39.279816,-7.43034,,"https://www.google.com/maps/dir/?api=1&destination=39.279815999999997,-7.4303400000000002"
10415,Lidl Lisboa &#8211; Coronel Galhardo,"Av. Cor. E. Galhardo, L. A,2.2-P. -3",1170-105,Lisboa,Lisboa,38.727887,-9.126665,,"https://www.google.com/maps/dir/?api=1&destination=38.727887000000003,-9.1266649999999991"
10416,Lidl Lisboa &#8211; Xabregas,"R. Bispo de Coxim,1",1900-455,Lisboa,Lisboa,38.722252,-9.139336,,"https://www.google.com/maps/dir/?api=1&destination=38.722251999999997,-9.1393360000000001"
10417,Lidl Cascais &#8211; Alcoitão,"Avenida da República,2562",2645-565,Lisboa,Cascais,38.735201,-9.395593,,"https://www.google.com/maps/dir/?api=1&destination=38.735201000000004,-9.3955929999999999"
10378,Preço Baixo Metro,"Rua Almirante Reis, 58, 4490-463",4490-463,Porto,Póvoa de Varzim,41.37636,-8.75782,,"https://www.google.com/maps/dir/?api=1&destination=41.376359999999998,-8.7578200000000006"
10379,Preço Baixo Santo Tirso,"Rua Conde de São Bento, 42, 4780-375",4780-375,Porto,Santo Tirso,41.34011,-8.47604,,"https://www.google.com/maps/dir/?api=1&destination=41.340110000000003,-8.4760399999999994"
10380,Preço Baixo Fradelos,"Rua de Santa Leocádia, 10, 4760-485",4760-485,Braga,Vila Nova de Famalicão,41.37544,-8.60791,,"https://www.google.com/maps/dir/?api=1&destination=41.375439999999998,-8.6079100000000004"
10381,Paradi Gafanha da Nazaré I,Rua Sacadura Cabral,3830-719,Aveiro,Ílhavo,40.640587,-8.714932,,"https://www.google.com/maps/dir/?api=1&destination=40.640586999999996,-8.7149319999999992"
10382,Paradi Gafanha da Nazaré II,AVENIDA JOSÉ ESTEVÃO,3830-554,Aveiro,Ílhavo,40.635971,-8.695545,,"https://www.google.com/maps/dir/?api=1&destination=40.635970999999998,-8.6955449999999992"
10383,Paradi Bustos,Rua Frei Gil 37,3770-217,Aveiro,Oliveira do Bairro,40.500988,-8.586824,,"https://www.google.com/maps/dir/?api=1&destination=40.500988,-8.586824"
10384,Paradi Gafanha da Encarnação,Rua Professor Francisco Corujo Nº 154,3830-523,Aveiro,Ílhavo,40.620626,-8.731996,,"https://www.google.com/maps/dir/?api=1&destination=40.620626000000001,-8.7319960000000005"
10385,Paradi Mira,Rua Marquês de Pombal 38/40,3070-327,Coimbra,Mira,40.43231,-8.740252,,"https://www.google.com/maps/dir/?api=1&destination=40.432310000000001,-8.7402519999999999"
10386,Paradi Oliveirinha,Rua S. António Nº 9,3810-886,Aveiro,Aveiro,40.606353,-8.594361,,"https://www.google.com/maps/dir/?api=1&destination=40.606352999999999,-8.5943609999999993"
10387,Paradi Praia da Barra,Avenida Fernandes Lavrador,3830-748,Aveiro,Ílhavo,40.638137,-8.746228,,"https://www.google.com/maps/dir/?api=1&destination=40.638137,-8.7462280000000003"
10388,Paradi Alboi,CAIS DOS MOLICEIROS 2A,3810-136,Aveiro,Aveiro,40.639032,-8.657076,,"https://www.google.com/maps/dir/?api=1&destination=40.639032,-8.657076"
10389,Muito Menos,"Quinta dos Cedros , Lote 2",6360-352,Guarda,Celorico da Beira,40.626168,-7.402575,,"https://www.google.com/maps/dir/?api=1&destination=40.626168,-7.4025749999999997"
10390,Lidl Fafe,"R. Cid. de Guimarães, ,285-E.N. 206",4820-178,Braga,Fafe,41.45303,-8.19142,,"https://www.google.com/maps/dir/?api=1&destination=41.453029999999998,-8.1914200000000008"
10391,Lidl Sintra &#8211; Tapada das Mercês,"Rua da Chamuscada,6",2725-093,Lisboa,Sintra,38.80065,-9.324781,,"https://www.google.com/maps/dir/?api=1&destination=38.800649999999997,-9.3247809999999998"
10392,Lidl Condeixa-a-Nova,"Urbanização Faia Nova, Lote B,2",3150-280,Coimbra,Condeixa-a-Nova,40.11295,-8.51641,,"https://www.google.com/maps/dir/?api=1&destination=40.112949999999998,-8.5164100000000005"
10393,Lidl Cartaxo,"Rua do Progresso,2",2070-085,Santarém,Cartaxo,39.16682,-8.78755,,"https://www.google.com/maps/dir/?api=1&destination=39.166820000000001,-8.7875499999999995"
10394,Lidl Leiria &#8211; Rua Paulo VI,"Rua Paulo VI, 2565, Vale Sepal",2415-614,Leiria,Leiria,39.75901,-8.78624,,"https://www.google.com/maps/dir/?api=1&destination=39.759010000000004,-8.7862399999999994"
10395,Lidl Seixal &#8211; Mundet,"Avenida Albano Narciso Pereira,",2725-093,Lisboa,Sintra,38.79949,-9.32494,,"https://www.google.com/maps/dir/?api=1&destination=38.799489999999999,-9.3249399999999998"
10396,Lidl Lisboa &#8211; Belenenses,"Estádio do Restelo, Avenida do Restelo",2725-093,Lisboa,Sintra,38.79949,-9.32494,,"https://www.google.com/maps/dir/?api=1&destination=38.799489999999999,-9.3249399999999998"
10397,Lidl Armação de Pêra,"Av. General Humberto Delgado,",2725-093,Lisboa,Sintra,38.79949,-9.32494,,"https://www.google.com/maps/dir/?api=1&destination=38.799489999999999,-9.3249399999999998"
10358,Auchan Penamacor,Rua das lages nº 1,6090-551,Castelo Branco,Penamacor,40.16787,-7.16912,,"https://www.google.com/maps/dir/?api=1&destination=40.167870000000001,-7.1691200000000004"
10359,Meu Super Alcáçovas,"Largo do Secador, n.ºs 2 e 4",7090-068,Évora,Viana do Alentejo,38.39396,-8.1555,,"https://www.google.com/maps/dir/?api=1&destination=38.39396,-8.1555"
10360,Euro Lordelo,"Rua Adelino da Costa, Edificio park, loja 3",4580-795,Porto,Paredes,41.23797,-8.41357,,"https://www.google.com/maps/dir/?api=1&destination=41.237969999999997,-8.41357"
10361,Euro Baltar,"Avenida D. Manuel I, 2378 4580-013",4580-013,Porto,Paredes,41.20564,-8.33874,,"https://www.google.com/maps/dir/?api=1&destination=41.205640000000002,-8.3387399999999996"
10362,Euro Sobrado,Rua São João de Sobrado 1940 RC Sobrado,4440-339,Porto,Valongo,41.21627,-8.46079,,"https://www.google.com/maps/dir/?api=1&destination=41.216270000000002,-8.4607899999999994"
10363,Euro Água Longa,Rua das Escolas 47 Água Longa,4825-084,Porto,Santo Tirso,41.25827,-8.49743,,"https://www.google.com/maps/dir/?api=1&destination=41.258270000000003,-8.4974299999999996"
10364,Casa Duarte o Sacristão,"rua do barreiro nº6, 3670-056 Campia",3670-056,Viseu,Vouzela,40.673457,-8.217967,,"https://www.google.com/maps/dir/?api=1&destination=40.673456999999999,-8.2179669999999998"
10365,SPAR Furnas 1,"RUA VASCO BENSAUDE, 55",9675-055,Ilha de São Miguel,Povoação,37.773361,-25.309576,,"https://www.google.com/maps/dir/?api=1&destination=37.773361000000001,-25.309576"
10366,SPAR Furnas 2,"RUA DAS AGUAS QUENTES, 15",9675-064,Ilha de São Miguel,Povoação,37.76752,-25.31711,,"https://www.google.com/maps/dir/?api=1&destination=37.767519999999998,-25.31711"
10367,SPAR Ribeira Quente,"RUA DR. FREDERICO MUNIZ PEREIRA, 14-A",9675-174,Ilha de São Miguel,Povoação,37.735337,-25.29851,,"https://www.google.com/maps/dir/?api=1&destination=37.735337000000001,-25.29851"
10368,SPAR Povoação,"RUA JOSÉ DA SILVA GASPAR, 1",9650-219,Ilha de São Miguel,Povoação,37.759714,-25.235054,,"https://www.google.com/maps/dir/?api=1&destination=37.759714000000002,-25.235054000000002"
10369,SPAR Nordeste,"PRAÇA DA REPUBLICA,7",9630-141,Ilha de São Miguel,Nordeste,37.83226,-25.146697,,"https://www.google.com/maps/dir/?api=1&destination=37.832259999999998,-25.146697"
10370,SPAR Ribeira Seca,"RUA DOUTOR HERMANO DA SILVA MOTA,104-106",9600-227,Ilha de São Miguel,Ribeira Grande,37.816603,-25.533423,,"https://www.google.com/maps/dir/?api=1&destination=37.816603000000001,-25.533422999999999"
10371,Intermarché Proença-a-nova,LUGAR DE SÃO BARTOLOMEU,6150-504,Castelo Branco,Proença-a-Nova,39.751199,-7.91757,,"https://www.google.com/maps/dir/?api=1&destination=39.751199,-7.9175700000000004"
10372,Preço Baixo Leça da Palmeira,"Avenida Dr. Fernando Aroso, 489, 4450-662",4450-662,Porto,Matosinhos,41.19285,-8.69618,,"https://www.google.com/maps/dir/?api=1&destination=41.19285,-8.69618"
10373,Preço Baixo Angeiras,"Rua de Angeiras, 253",4455-036,Porto,Matosinhos,41.26596,-8.72276,,"https://www.google.com/maps/dir/?api=1&destination=41.26596,-8.7227599999999992"
10374,Preço Baixo Areosa,"Rua de Costa Cabral 2742,",4200-219,Porto,Porto,41.17865,-8.58396,,"https://www.google.com/maps/dir/?api=1&destination=41.178649999999998,-8.5839599999999994"
10375,Preço Baixo Tourada,"Avenida Vasco da Gama 20, 4490-410",4490-410,Porto,Póvoa de Varzim,41.38647,-8.77057,,"https://www.google.com/maps/dir/?api=1&destination=41.386470000000003,-8.7705699999999993"
10376,Preço Baixo Balasar,"Rua da Fábrica 583, Estrada Nacional 206, 4570-029",4570-029,Porto,Póvoa de Varzim,41.41493,-8.64925,,"https://www.google.com/maps/dir/?api=1&destination=41.414929999999998,-8.6492500000000003"
10377,Preço Baixo Viatodos,Centro Empresarial de Viatodos,4775-271,Braga,Barcelos,41.44917,-8.5608,,"https://www.google.com/maps/dir/?api=1&destination=41.449170000000002,-8.5608000000000004"
10338,Interpenalva,LUGAR DO CALVARIO,3550-167,Viseu,Penalva do Castelo,40.66216,-7.71589,,"https://www.google.com/maps/dir/?api=1&destination=40.66216,-7.7158899999999999"
10339,Supermangualde,RUA SÃO JOÃO BOSCO N 91,3530-137,Viseu,Mangualde,40.60983,-7.76648,,"https://www.google.com/maps/dir/?api=1&destination=40.609830000000002,-7.7664799999999996"
10340,Supermercado Viva Aqui,Edificio Santa Eulália,4690-666,Viseu,Cinfães,41.06965,-8.232016,,"https://www.google.com/maps/dir/?api=1&destination=41.069650000000003,-8.2320159999999998"
10341,Intermarché Montemor o Velho,Urbanização Vinha da Parreira,3140-249,Coimbra,Montemor-o-Velho,40.184644,-8.672161,,"https://www.google.com/maps/dir/?api=1&destination=40.184643999999999,-8.6721609999999991"
10342,Asda Alimentar Cash and Carry,Rua Santos Carvalho lt4 lote4,2725-176,Lisboa,Sintra,38.786079,-9.352096,,"https://www.google.com/maps/dir/?api=1&destination=38.786079000000001,-9.3520959999999995"
10343,O Azeiteiro,Rua Joaquim de Almeida nº1022,2870-339,Setúbal,Montijo,38.7064,-8.97107,,"https://www.google.com/maps/dir/?api=1&destination=38.706400000000002,-8.9710699999999992"
10344,Beauty Stores Queluz,Av Jose Elias Garcia 104 A,2745-142,Lisboa,Sintra,38.75652,-9.25403,,"https://www.google.com/maps/dir/?api=1&destination=38.756520000000002,-9.2540300000000002"
10345,Beauty Stores Moscavide,Av de Moscavide 37,1885-065,Lisboa,Loures,38.7781,-9.102259,,"https://www.google.com/maps/dir/?api=1&destination=38.778100000000002,-9.1022590000000001"
10346,Meu Super Alfândega da Fé,Avenida Engenheiro Camilo Mendonça nº 234,5350-001,Bragança,Alfândega da Fé,41.34467,-6.95987,,"https://www.google.com/maps/dir/?api=1&destination=41.344670000000001,-6.9598699999999996"
10347,Intermarché de Aljezur,IGREJA NOVA- ESTRADA NACIONAL 120,8670-161,Faro,Aljezur,37.39547,-8.78394,,"https://www.google.com/maps/dir/?api=1&destination=37.395470000000003,-8.7839399999999994"
10348,Meu Super Machico,"Rua Manuel Passos, Edifício Parque MV, nºs 38 e 40, Loja E",9200-134,Ilha da Madeira,Machico,32.730267,-16.775533,,"https://www.google.com/maps/dir/?api=1&destination=32.730266999999998,-16.775532999999999"
10349,Intermarché Alfena,"Rua Ciclo Preparatório, 200",4445-067,Porto,Valongo,41.237834,-8.532043,,"https://www.google.com/maps/dir/?api=1&destination=41.237833999999999,-8.5320429999999998"
10350,Minimercado Chainho,Estrada Nacional 261 Nº 10,7570-610,Setúbal,Grândola,38.148311,-8.727404,,"https://www.google.com/maps/dir/?api=1&destination=38.148311,-8.7274039999999999"
10351,Intermarché da Batalha,largo 14 de agosto 1385,2440-105,Leiria,Batalha,39.65809,-8.8232,,"https://www.google.com/maps/dir/?api=1&destination=39.658090000000001,-8.8231999999999999"
10352,Supermercado Oceano &#8211; Coviran Plus,SUPERMERCADO OCEANO - Coviran Plus,8200-373,Faro,Albufeira,37.090163,-8.294924,,"https://www.google.com/maps/dir/?api=1&destination=37.090162999999997,-8.294924"
10353,Supermercado Oceano &#8211; Coviran,Urbanização Salgados Village - Lote 36/37,8200-424,Faro,Albufeira,37.088075,-8.318453,,"https://www.google.com/maps/dir/?api=1&destination=37.088075000000003,-8.3184529999999999"
10354,Intermarché São Romão &#8211; Seia,"BAIRRO VILA ALZIRA, EDIFICIO INTERMARCHÉ",6270-262,Guarda,Seia,40.40157,-7.71312,,"https://www.google.com/maps/dir/?api=1&destination=40.40157,-7.71312"
10355,Intermarché Oliveira de Frades,AV. ENG. JOAO MAIA,3680-147,Viseu,Oliveira de Frades,40.73453,-8.17521,,"https://www.google.com/maps/dir/?api=1&destination=40.734529999999999,-8.1752099999999999"
10356,Âncora Parque,Santa Catarina,9930-173,Ilha do Pico,Lajes do Pico,38.402445,-28.25359,,"https://www.google.com/maps/dir/?api=1&destination=38.402445,-28.253589999999999"
10357,Auchan Sabugal,Av. Dr. João Pereira nº 20,6320-314,Guarda,Sabugal,40.35039,-7.08299,,"https://www.google.com/maps/dir/?api=1&destination=40.350389999999997,-7.0829899999999997"
10318,Belita Riba de Ave,Rua Conde de Riba d’Ave nº162,4765-220,Braga,Vila Nova de Famalicão,41.389109,-8.390937,,"https://www.google.com/maps/dir/?api=1&destination=41.389108999999998,-8.3909369999999992"
10319,Belita Bente,Rua Estrada Nacional 204/205 nº158,4760-000,Braga,Vila Nova de Famalicão,41.37961,-8.449473,,"https://www.google.com/maps/dir/?api=1&destination=41.37961,-8.4494729999999993"
10320,Projecto Fresno,AVENIDA GUERRA JUNQUEIRO S/N,5180-104,Bragança,Freixo de Espada à Cinta,41.09031,-6.80872,,"https://www.google.com/maps/dir/?api=1&destination=41.090310000000002,-6.8087200000000001"
10321,SPAR Coimbra Sá da Bandeira,"Avenida Sá da Bandeira, nr 96",3000-350,Coimbra,Coimbra,40.210679,-8.422576,,"https://www.google.com/maps/dir/?api=1&destination=40.210678999999999,-8.4225759999999994"
10322,SPAR Midões,"Estr. São Miguel, nr 24",3420-136,Coimbra,Tábua,40.38644,-7.944912,,"https://www.google.com/maps/dir/?api=1&destination=40.38644,-7.9449120000000004"
10323,SPAR Sto Martinho Bispo,"Rua dos Covões, nr 18",3045-049,Coimbra,Coimbra,40.202432,-8.459285,,"https://www.google.com/maps/dir/?api=1&destination=40.202432000000002,-8.4592849999999995"
10324,SPAR Lisboa Av. Liberdade,"Rua Duque de Palmela, nr 30-C",1250-098,Lisboa,Lisboa,38.72372,-9.14999,,"https://www.google.com/maps/dir/?api=1&destination=38.72372,-9.1499900000000007"
10325,SPAR Lisboa Santos,"R. do Instituto Industrial 16,",1200-225,Lisboa,Lisboa,38.707942,-9.150447,,"https://www.google.com/maps/dir/?api=1&destination=38.707942000000003,-9.1504469999999998"
10326,Angelo Silva,"RUA DE MOINHOS, 176 - RÉS CHÃO",4590-819,Porto,Paços de Ferreira,41.27549,-8.35184,,"https://www.google.com/maps/dir/?api=1&destination=41.275489999999998,-8.3518399999999993"
10327,Cooperativa Agricola da Tocha,Rua Professor Manuel Rodrigues Romao,3060-719,Coimbra,Cantanhede,40.3155,-8.75258,,"https://www.google.com/maps/dir/?api=1&destination=40.3155,-8.75258"
10328,Supermercados Guarita da Praia da Vitória,"Rua Comendador Francisco Jose Barcelos, 1",9760-472,Ilha Terceira,Praia da Vitória,38.731515,-27.065549,,"https://www.google.com/maps/dir/?api=1&destination=38.731515000000002,-27.065549000000001"
10329,Supermercados Guarita da Terra do Pão,Terra do Pão,9700-590,Ilha Terceira,Angra do Heroísmo,38.668503,-27.264048,,"https://www.google.com/maps/dir/?api=1&destination=38.668503000000001,-27.264047999999999"
10330,Supermercado Guarita de Angra do Heroísmo,"Rua da Guarita, 33, 43",9700-096,Ilha Terceira,Angra do Heroísmo,38.657453,-27.21402,,"https://www.google.com/maps/dir/?api=1&destination=38.657452999999997,-27.214020000000001"
10331,Shopping Center Vilaverdense,"Rua José Feio Soares Azevedo, nº 134",4730-071,Braga,Vila Verde,41.65153,-8.43957,,"https://www.google.com/maps/dir/?api=1&destination=41.651530000000001,-8.4395699999999998"
10332,Supermercados Vilaverdense &#8211; Pico,"Avenida da Vila, nº 284",4730-393,Braga,Vila Verde,41.685929,-8.420355,,"https://www.google.com/maps/dir/?api=1&destination=41.685929000000002,-8.4203550000000007"
10333,Casa Ganilho,RUA COMBATENTES DO ULTRAMAR 181,4410-198,Porto,Vila Nova de Gaia,41.04087,-8.62919,,"https://www.google.com/maps/dir/?api=1&destination=41.040869999999998,-8.6291899999999995"
10334,Capitolina Supermercados,"Avenida S. João de Deus, 7-15",4910-107,Viana do Castelo,Caminha,41.87485,-8.837374,,"https://www.google.com/maps/dir/?api=1&destination=41.874850000000002,-8.8373740000000005"
10335,Minimercado Reis,"Rua de S. António, lt C nº 7 Lj3",3150-160,Coimbra,Condeixa-a-Nova,40.11278,-8.493993,,"https://www.google.com/maps/dir/?api=1&destination=40.112780000000001,-8.4939929999999997"
10336,Intermarché Samora Correia,Edificio Intermarché,2135-339,Santarém,Benavente,38.93625,-8.87108,,"https://www.google.com/maps/dir/?api=1&destination=38.936250000000001,-8.8710799999999992"
10337,SPAR Santa Catarina,Rua Santa Catarina 62,4000-441,Porto,Porto,41.14658,-8.6069,,"https://www.google.com/maps/dir/?api=1&destination=41.14658,-8.6068999999999996"
10298,Supermercado Joaninha,"Estrada de Paço de Arcos, 8 A/B",2770-129,Lisboa,Oeiras,38.70357,-9.29477,,"https://www.google.com/maps/dir/?api=1&destination=38.703569999999999,-9.2947699999999998"
10299,Bolama Ponte,Rua do Estremadouro n.421,4810-157,Braga,Guimarães,41.464791,-8.330319,,"https://www.google.com/maps/dir/?api=1&destination=41.464790999999998,-8.3303189999999994"
10300,Bolama Conde,Av. Conde Margaride nº671,4835-073,Braga,Guimarães,41.441986,-8.3003,,"https://www.google.com/maps/dir/?api=1&destination=41.441986,-8.3003"
10301,Bolama Paio,Rua Paio Galvão nº83/84,4810-426,Braga,Guimarães,41.443498,-8.296351,,"https://www.google.com/maps/dir/?api=1&destination=41.443497999999998,-8.2963509999999996"
10302,Bolama Azurem,Rua Pousada de Dentro nr26,4800-056,Braga,Guimarães,41.45808,-8.29539,,"https://www.google.com/maps/dir/?api=1&destination=41.458080000000002,-8.2953899999999994"
10303,Bolama Joane,A. Dr. Mario Soares nr2311,4770-215,Braga,Vila Nova de Famalicão,41.43193,-8.42102,,"https://www.google.com/maps/dir/?api=1&destination=41.431930000000001,-8.4210200000000004"
10304,SPAR de São Roque,"Rua Dr. Tibério Avila Brasil, 5",9940-365,Ilha do Pico,São Roque do Pico,38.524533,-28.321295,,"https://www.google.com/maps/dir/?api=1&destination=38.524532999999998,-28.321294999999999"
10305,Supermercado Sol da Falésia,"Praceta do Pinhal, Edifício Caravela CP 18 Pinhal do Concelho",8200-593,Faro,Albufeira,37.090462,-8.168061,,"https://www.google.com/maps/dir/?api=1&destination=37.090462000000002,-8.1680609999999998"
10306,Supercentro,Rua dos Marçalos CCI-11121,2965-261,Setúbal,Palmela,38.601545,-8.777905,,"https://www.google.com/maps/dir/?api=1&destination=38.601545000000002,-8.7779050000000005"
10307,FGP,RUA GIL EANES N 33 CINTRÃO,2540-172,Leiria,Bombarral,39.25723,-9.15906,,"https://www.google.com/maps/dir/?api=1&destination=39.25723,-9.1590600000000002"
10308,Casal Dos Morangos,R. Dr. Guilherme Nunes Godinho 367,2080-562,Santarém,Almeirim,39.1826,-8.59017,,"https://www.google.com/maps/dir/?api=1&destination=39.182600000000001,-8.5901700000000005"
10309,António Teixeira Lopes e Filhos (Gestosa),RUA DA COSTA N 75,4440-049,Porto,Valongo,41.17115,-8.46442,,"https://www.google.com/maps/dir/?api=1&destination=41.171149999999997,-8.4644200000000005"
10310,António Teixeira Lopes e Filhos (São Roque),rua chaves oliveira 181,4369-005,Porto,Porto,41.16144,-8.57806,,"https://www.google.com/maps/dir/?api=1&destination=41.161439999999999,-8.5780600000000007"
10311,António Teixeira Lopes Filhos (Vila N. Famalicão),"Rua jose elisio goncalves cereijeira, 501",4760-317,Braga,Vila Nova de Famalicão,41.3957,-8.53444,,"https://www.google.com/maps/dir/?api=1&destination=41.395699999999998,-8.53444"
10312,Aroma Dourado,Cruzamento da Estrada da Zebras nº1,6230-512,Castelo Branco,Fundão,40.04902,-7.36713,,"https://www.google.com/maps/dir/?api=1&destination=40.049019999999999,-7.3671300000000004"
10313,SPAR Caniço de Baixo,"Rua D. Francisco Santana, Edif. Venture, Loja D SPAR",9125-031,Ilha da Madeira,Santa Cruz,32.643842,-16.829612,,"https://www.google.com/maps/dir/?api=1&destination=32.643841999999999,-16.829612000000001"
10314,Adirmip,RUA 20 de Junho n.º1986,4640-465,Porto,Baião,41.144148,-7.950282,,"https://www.google.com/maps/dir/?api=1&destination=41.144148000000001,-7.9502819999999996"
10315,Mundo das Bebidas,AVENIDA DO COMBATENTES 127,2040-344,Santarém,Rio Maior,39.33255,-8.94044,,"https://www.google.com/maps/dir/?api=1&destination=39.332549999999998,-8.9404400000000006"
10316,Belita Supermercados Delães,Rua da Igreja nº269,4765-623,Braga,Vila Nova de Famalicão,41.386823,-8.417716,,"https://www.google.com/maps/dir/?api=1&destination=41.386823,-8.4177160000000004"
10317,Belita Supermercados Atlantic Park,Atlantic Park Nave 1 e 2 Estrada nacional 204,4770-282,Braga,Vila Nova de Famalicão,41.38166,-8.49126,,"https://www.google.com/maps/dir/?api=1&destination=41.381659999999997,-8.4912600000000005"
10278,Supermercados Nova Era,"Rua da Portela, 299",5470-229,Vila Real,Montalegre,41.825408,-7.788303,,"https://www.google.com/maps/dir/?api=1&destination=41.825408000000003,-7.788303"
10279,Coviran A C Lima,Rua do Imaculado Coração de Maria 267,4810-233,Braga,Guimarães,41.453141,-8.275328,,"https://www.google.com/maps/dir/?api=1&destination=41.453141000000002,-8.275328"
10280,Supermercados Coviran Barcelos,Praca Antonio Fogaca Bl 5 R/C Loja C,4750-260,Braga,Barcelos,41.532547,-8.623871,,"https://www.google.com/maps/dir/?api=1&destination=41.532547000000001,-8.6238709999999994"
10281,Casa Costa &#038; Gaspar,"Avenida Do Emigrante, 42",5180-103,Bragança,Freixo de Espada à Cinta,41.08991,-6.80898,,"https://www.google.com/maps/dir/?api=1&destination=41.089910000000003,-6.80898"
10282,Mira Ramos Supermercado,RUA HEROIS DA PATRIA 956,4410-001,Porto,Vila Nova de Gaia,41.059599,-8.645473,,"https://www.google.com/maps/dir/?api=1&destination=41.059598999999999,-8.6454730000000009"
10283,Supermercado Baptista,"Urbanização Montes da Luz,Lote 58",8600-164,Faro,Lagos,37.08838,-8.73014,,"https://www.google.com/maps/dir/?api=1&destination=37.088380000000001,-8.7301400000000005"
10284,Delicias Supermercado,Rua Prof. Dr. Mota Pinto nr 47 RC - A,5300-437,Bragança,Bragança,41.817625,-6.757568,,"https://www.google.com/maps/dir/?api=1&destination=41.817625,-6.757568"
10285,Super Apolo,Rua Guerra Junqueiro 26 RC,5300-170,Bragança,Bragança,41.808145,-6.758507,,"https://www.google.com/maps/dir/?api=1&destination=41.808145000000003,-6.7585069999999998"
10286,Delicias Pastelaria,Rua Prof. Dr. Mota Pinto nr 47 RC - B,5300-437,Bragança,Bragança,41.817609,-6.757632,,"https://www.google.com/maps/dir/?api=1&destination=41.817608999999997,-6.7576320000000001"
10287,Supermercado Coviran Benafim,RUA ANTONIA PROVISORIO N 11 A BENAFIM,8100-352,Faro,Loulé,37.233369,-8.122013,,"https://www.google.com/maps/dir/?api=1&destination=37.233369000000003,-8.1220130000000008"
10288,SPAR Fornos de Algodres,"Rua 25 de Abril, Edificio Novo",6370-127,Guarda,Fornos de Algodres,40.619002,-7.536278,,"https://www.google.com/maps/dir/?api=1&destination=40.619002000000002,-7.5362780000000003"
10289,SPAR Ermidas do Sado,"Zona Industrial de Ermidas do Sado, Lote 1",7565-258,Setúbal,Santiago do Cacém,38.008328,-8.405442,,"https://www.google.com/maps/dir/?api=1&destination=38.008327999999999,-8.4054420000000007"
10290,Biquimicos,ZONA INDUSTRIAL LOTE 38,7600-179,Beja,Aljustrel,37.877775,-8.151759,,"https://www.google.com/maps/dir/?api=1&destination=37.877775,-8.1517590000000002"
10291,E.Leclerc de Darque,LUGAR DE SANTOINHO - QUINTA DE S.BRÁS,4935-052,Viana do Castelo,Viana do Castelo,41.676863,-8.782357,,"https://www.google.com/maps/dir/?api=1&destination=41.676862999999997,-8.7823569999999993"
10292,Meu Super Varziela,RUA JOSE RAMOS MAIA N 37,4480-628,Porto,Vila do Conde,41.32892,-8.71743,,"https://www.google.com/maps/dir/?api=1&destination=41.328919999999997,-8.7174300000000002"
10293,SPAR Ponta Delgada,"R. MARQUÊS DA PRAIA E MONFORTE, 2",9500-089,Ilha de São Miguel,Ponta Delgada,37.740203,-25.670704,,"https://www.google.com/maps/dir/?api=1&destination=37.740203000000001,-25.670704000000001"
10294,Catuna &#038; Silva,supermercado miraparque  estrada das açoteias,8200-380,Faro,Albufeira,37.09721,-8.17391,,"https://www.google.com/maps/dir/?api=1&destination=37.097209999999997,-8.1739099999999993"
10295,Successexpert Lagos,"estrada ponta da piedade, edificio trindade cave 1 e 2 B",8600-412,Faro,Lagos,37.10337,-8.67219,,"https://www.google.com/maps/dir/?api=1&destination=37.103369999999998,-8.6721900000000005"
10296,Successexpert Praia da Luz,"rua 1º de maio , fração C",8600-172,Faro,Lagos,37.08752,-8.73126,,"https://www.google.com/maps/dir/?api=1&destination=37.087519999999998,-8.7312600000000007"
10297,Supermercado Castelo,ESTRADA DO CASTELO,8200-385,Faro,Albufeira,37.08115,-8.28473,,"https://www.google.com/maps/dir/?api=1&destination=37.081150000000001,-8.2847299999999997"
10258,Coviran Casão da Fruta,Rua  de Almodovar n 2,7780-171,Beja,Castro Verde,37.696288,-8.086817,,"https://www.google.com/maps/dir/?api=1&destination=37.696288000000003,-8.0868169999999999"
10259,Coviran Loja da Fruta,rua joaquim romao julio nº1,7780-196,Beja,Castro Verde,37.698644,-8.086925,,"https://www.google.com/maps/dir/?api=1&destination=37.698644000000002,-8.0869250000000008"
10260,Intermarché Alcácer do Sal,Cerrado Das Majapoas,7580-054,Setúbal,Alcácer do Sal,38.37429,-8.50895,,"https://www.google.com/maps/dir/?api=1&destination=38.374290000000002,-8.5089500000000005"
10261,Auchan Pataias,Av. D. Dinis 50,2445-076,Leiria,Alcobaça,39.680216,-8.974017,,"https://www.google.com/maps/dir/?api=1&destination=39.680216000000001,-8.9740169999999999"
10262,Auchan Maceira,Rua de Leiria 1D,2405-018,Leiria,Leiria,39.685438,-8.886201,,"https://www.google.com/maps/dir/?api=1&destination=39.685437999999998,-8.8862009999999998"
10263,SPAR Deolindas,LARGO SOARES DOS REIS N 94,4300-198,Porto,Porto,41.1472,-8.597,,"https://www.google.com/maps/dir/?api=1&destination=41.147199999999998,-8.5969999999999995"
10264,SPAR Santos Pousada,Rua de Santos Pousada 1303,4000-490,Porto,Porto,41.16029,-8.59855,,"https://www.google.com/maps/dir/?api=1&destination=41.160290000000003,-8.5985499999999995"
10265,Favorita SPAR Quinta do Paraíso,Urbanização Quinta do Paraíso,8400-558,Faro,Lagoa,37.105267,-8.476859,,"https://www.google.com/maps/dir/?api=1&destination=37.105266999999998,-8.4768589999999993"
10266,Favorita SPAR Carvoeiro,"Urbanização Monte Carvoeiro, Lote 1, RC",8400-562,Faro,Lagoa,37.099033,-8.474348,,"https://www.google.com/maps/dir/?api=1&destination=37.099032999999999,-8.4743480000000009"
10267,Favorita SPAR Guia,"Av. Da Liberdade, Bloco B, Fração H",8200-434,Faro,Albufeira,37.125945,-8.300745,,"https://www.google.com/maps/dir/?api=1&destination=37.125945000000002,-8.3007449999999992"
10268,Favorita SPAR Balaia,"Urb. Balaia Village, Lote 4-Letra ""D""",8200-912,Faro,Albufeira,37.092542,-8.20624,,"https://www.google.com/maps/dir/?api=1&destination=37.092542000000002,-8.2062399999999993"
10269,Central Cash,"Estrada 4 Castelos, Lote 129 - Vila Amélia",2950-805,Setúbal,Palmela,38.57172,-9.00321,,"https://www.google.com/maps/dir/?api=1&destination=38.571719999999999,-9.0032099999999993"
